fid,DamID,DamName,Lat,Lon,FlagType,InstllCap,MaxVol,MaxVolSrc,MinVol,MinVolSrc,MaxH,MinH,MaxHSrc,MinHSrc,NmEnrgy01a,NmEnrgy01b,NmEnrgy01c,NmEnrgy01d,DisDur01a,DisDur01b,DisDur01c,DisDur01d,HisMaxVol,HisMinVol,HisMeanVol,HisMedVol,HisVol_25,HisVol_75,HisMaxH,HisMinH,HisMeanH,HisMedH,HisH_25,HisH_75,HisSrc,HisPeriod,NmEnrgy02a,NmEnrgy02b,NmEnrgy02c,NmEnrgy02d,NmEnrgy02e,NmEnrgy02f,DisDur02a,DisDur02b,DisDur02c,DisDur02d,DisDur02e,DisDur02f
"1","1",NA,57.65149,-153.02665,Conventional storage dam,33.6,133.2,GRanDv1.3,133.2,GRanDv1.3,41.3,41.3,GRanDv1.3,GRanDv1.3,14990.661,14990.661,7495.3305,7495.3305,446.150625,446.150625,223.0753125,223.0753125,-99999,-99999,-99999,-99999,-99999,-99999,-99999,-99999,-99999,-99999,-99999,-99999,NA,NA,-99999,-99999,-99999,-99999,-99999,-99999,-99999,-99999,-99999,-99999,-99999,-99999
"2","1458",NA,45.52571,-89.2052,Conventional storage dam,-99999,61.6,GRanDv1.3,61.6,GRanDv1.3,1.4,1.4,GRanDv1.3,GRanDv1.3,235.004,235.004,117.502,117.502,-99999,-99999,-99999,-99999,-99999,-99999,-99999,-99999,-99999,-99999,-99999,-99999,-99999,-99999,-99999,-99999,NA,NA,-99999,-99999,-99999,-99999,-99999,-99999,-99999,-99999,-99999,-99999,-99999,-99999
"3","2037",NA,46.18788,-69.31467,Conventional storage dam,-99999,13.3,GRanDv1.3,13.3,GRanDv1.3,2.8,2.8,GRanDv1.3,GRanDv1.3,101.479,101.479,50.7395,50.7395,-99999,-99999,-99999,-99999,-99999,-99999,-99999,-99999,-99999,-99999,-99999,-99999,-99999,-99999,-99999,-99999,NA,NA,-99999,-99999,-99999,-99999,-99999,-99999,-99999,-99999,-99999,-99999,-99999,-99999
"4","2046",NA,45.82058,-69.16358,Conventional storage dam,-99999,14.9,GRanDv1.3,14.9,GRanDv1.3,2.1,2.1,GRanDv1.3,GRanDv1.3,85.26525,85.26525,42.632625,42.632625,-99999,-99999,-99999,-99999,-99999,-99999,-99999,-99999,-99999,-99999,-99999,-99999,-99999,-99999,-99999,-99999,NA,NA,-99999,-99999,-99999,-99999,-99999,-99999,-99999,-99999,-99999,-99999,-99999,-99999
"5","2256",NA,18.27566,-66.6551,Conventional storage dam,-99999,67.8,GRanDv1.3,67.8,GRanDv1.3,51.1,51.1,GRanDv1.3,GRanDv1.3,9440.9805,9440.9805,4720.49025,4720.49025,-99999,-99999,-99999,-99999,-99999,-99999,-99999,-99999,-99999,-99999,-99999,-99999,-99999,-99999,-99999,-99999,NA,NA,-99999,-99999,-99999,-99999,-99999,-99999,-99999,-99999,-99999,-99999,-99999,-99999
"6","4",NA,56.98678,-135.11281,Conventional storage dam,18.6,115.9,GRanDv1.3,115.9,GRanDv1.3,44.8,44.8,GRanDv1.3,GRanDv1.3,14149.072,14149.072,7074.536,7074.536,760.702795698925,760.702795698925,380.351397849462,380.351397849462,-99999,-99999,-99999,-99999,-99999,-99999,-99999,-99999,-99999,-99999,-99999,-99999,NA,NA,-99999,-99999,-99999,-99999,-99999,-99999,-99999,-99999,-99999,-99999,-99999,-99999
"7","50",NA,47.69481,-121.6879,Conventional storage dam,-99999,84.4,GRanDv1.3,84.4,GRanDv1.3,42.7,42.7,GRanDv1.3,GRanDv1.3,9820.573,9820.573,4910.2865,4910.2865,-99999,-99999,-99999,-99999,-99999,-99999,-99999,-99999,-99999,-99999,-99999,-99999,-99999,-99999,-99999,-99999,NA,NA,-99999,-99999,-99999,-99999,-99999,-99999,-99999,-99999,-99999,-99999,-99999,-99999
"8","739",NA,48.00095,-91.73126,Conventional storage dam,-99999,21.7,GRanDv1.3,21.7,GRanDv1.3,14,14,GRanDv1.3,GRanDv1.3,827.855,827.855,413.9275,413.9275,-99999,-99999,-99999,-99999,-99999,-99999,-99999,-99999,-99999,-99999,-99999,-99999,-99999,-99999,-99999,-99999,NA,NA,-99999,-99999,-99999,-99999,-99999,-99999,-99999,-99999,-99999,-99999,-99999,-99999
"9",AK00001,COOPER LAKE,60.43371,-149.82315,Conventional storage dam,19.4,310.66,HydroLAKES,138.14976,NID2019,11.09472,11.09472,NID2019,NID2019,9392.21857392,4176.69716685312,4696.10928696,2088.34858342656,484.134978037113,215.293668394491,242.067489018557,107.646834197245,-99999,-99999,-99999,-99999,-99999,-99999,-99999,-99999,-99999,-99999,-99999,-99999,NA,NA,-99999,-99999,-99999,-99999,-99999,-99999,-99999,-99999,-99999,-99999,-99999,-99999
"10",AK00002,BLUE LAKE,57.0633,-135.1917,Conventional storage dam,17.44,328.10568,NID2019,179.1,GRanDv1.3,41.4528,30.8,NID2019,GRanDv1.3,37062.4501344384,15031.863,18531.2250672192,7515.9315,2125.14048936,861.91875,1062.57024468,430.959375,-99999,-99999,-99999,-99999,-99999,-99999,-99999,-99999,-99999,-99999,-99999,-99999,NA,NA,-99999,-99999,-99999,-99999,-99999,-99999,-99999,-99999,-99999,-99999,-99999,-99999
"11",AK00003,SALMON CREEK,58.34185,-134.40361,Conventional storage dam,8.5,14.80176,NID2019,9.98,HydroLAKES,37.338,37.338,NID2019,NID2019,1506.020613048,1015.425579,753.010306524,507.7127895,177.178895652706,119.461832823529,88.5894478263529,59.7309164117647,-99999,-99999,-99999,-99999,-99999,-99999,-99999,-99999,-99999,-99999,-99999,-99999,NA,NA,-99999,-99999,-99999,-99999,-99999,-99999,-99999,-99999,-99999,-99999,-99999,-99999
"12",AK00004,ANNEX CREEK,58.32694,-134.12658,Conventional storage dam,4,28.863432,NID2019,23.11,HydroLAKES,4.2672,4.2672,NID2019,NID2019,335.62745090784,268.7258532,167.81372545392,134.3629266,83.90686272696,67.1814633,41.95343136348,33.59073165,-99999,-99999,-99999,-99999,-99999,-99999,-99999,-99999,-99999,-99999,-99999,-99999,NA,NA,-99999,-99999,-99999,-99999,-99999,-99999,-99999,-99999,-99999,-99999,-99999,-99999
"13",AK00005,CRYSTAL LAKE,56.59953,-132.8303,Conventional storage dam,1.6,11.36,HydroLAKES,6.414096,NID2019,9.144,9.144,NID2019,NID2019,283.061664,159.8225956704,141.530832,79.9112978352,176.91354,99.889122294,88.45677,49.944561147,-99999,-99999,-99999,-99999,-99999,-99999,-99999,-99999,-99999,-99999,-99999,-99999,NA,NA,-99999,-99999,-99999,-99999,-99999,-99999,-99999,-99999,-99999,-99999,-99999,-99999
"14",AK00006,KETCHIKAN LAKES,55.3594,-131.6203,Conventional storage dam,4.2,17,GRanDv1.3,14.13938124,NID2019,7.25424,7,NID2019,GRanDv1.3,336.052668,269.708697153,168.026334,134.8543485765,80.01254,64.216356465,40.00627,32.1081782325,-99999,-99999,-99999,-99999,-99999,-99999,-99999,-99999,-99999,-99999,-99999,-99999,NA,NA,-99999,-99999,-99999,-99999,-99999,-99999,-99999,-99999,-99999,-99999,-99999,-99999
"15",AK00007,UPPER SILVIS,55.37952,-131.52051,Conventional storage dam,2.1,46.9,GRanDv1.3,27.13656,NID2019,12.8016,12.6,NID2019,GRanDv1.3,1636.076484,931.7337876,818.038242,465.8668938,779.08404,443.682756,389.54202,221.841378,-99999,-99999,-99999,-99999,-99999,-99999,-99999,-99999,-99999,-99999,-99999,-99999,NA,NA,-99999,-99999,-99999,-99999,-99999,-99999,-99999,-99999,-99999,-99999,-99999,-99999
"16",AK00008,LOWER SILVIS,55.3817,-131.5039,Conventional storage dam,5.4,2.55,HydroLAKES,1.726872,NID2019,6.82752,6.82752,NID2019,NID2019,47.4427296,32.128439745024,23.7213648,16.064219872512,8.78569066666667,5.94971106389333,4.39284533333333,2.97485553194667,-99999,-99999,-99999,-99999,-99999,-99999,-99999,-99999,-99999,-99999,-99999,-99999,NA,NA,-99999,-99999,-99999,-99999,-99999,-99999,-99999,-99999,-99999,-99999,-99999,-99999
"17",AK00009,LOWER DEWEY,59.44051,-135.3177,Conventional storage dam,-99999,0.73,HydroLAKES,0.30837,NID2019,5.97408,5.97408,NID2019,NID2019,11.88393864,5.02006871016,5.94196932,2.51003435508,-99999,-99999,-99999,-99999,-99999,-99999,-99999,-99999,-99999,-99999,-99999,-99999,-99999,-99999,-99999,-99999,NA,NA,-99999,-99999,-99999,-99999,-99999,-99999,-99999,-99999,-99999,-99999,-99999,-99999
"18",AK00012,WHITMAN LAKE,55.33249,-131.53135,Run-of-River,4.8,6.66,HydroLAKES,1.7762112,NID2019,8.32104,8.32104,NID2019,NID2019,151.01439444,40.2752941089408,75.50719722,20.1376470544704,31.461332175,8.390686272696,15.7306660875,4.195343136348,-99999,-99999,-99999,-99999,-99999,-99999,-99999,-99999,-99999,-99999,-99999,-99999,NA,NA,-99999,-99999,-99999,-99999,-99999,-99999,-99999,-99999,-99999,-99999,-99999,-99999
"19",AK00027,SOLOMON GULCH,61.09,-146.3017,Conventional storage dam,12,38.85462,NID2019,38.85462,NID2019,24.5364,24.5364,NID2019,NID2019,2597.8855575078,2597.8855575078,1298.9427787539,1298.9427787539,216.49046312565,216.49046312565,108.245231562825,108.245231562825,-99999,-99999,-99999,-99999,-99999,-99999,-99999,-99999,-99999,-99999,-99999,-99999,NA,NA,-99999,-99999,-99999,-99999,-99999,-99999,-99999,-99999,-99999,-99999,-99999,-99999
"20",AK00032,SHOTTER CREEK UPPER DAM,58.11833,-135.3916,Conventional storage dam,-99999,0.06414096,NID2019,0.06414096,NID2019,1.92024,1.92024,NID2019,NID2019,0.33562745090784,0.33562745090784,0.16781372545392,0.16781372545392,-99999,-99999,-99999,-99999,-99999,-99999,-99999,-99999,-99999,-99999,-99999,-99999,-99999,-99999,-99999,-99999,NA,NA,-99999,-99999,-99999,-99999,-99999,-99999,-99999,-99999,-99999,-99999,-99999,-99999
"21",AK00033,EKLUTNA DAM,61.40528,-149.1425,Conventional storage dam,44.4,777.21,HydroLAKES,215.859,NID2019,10.668,10.668,NID2019,NID2019,22593.727863,6275.0858877,11296.8639315,3137.54294385,508.867744662162,141.330763236487,254.433872331081,70.6653816182433,-99999,-99999,-99999,-99999,-99999,-99999,-99999,-99999,-99999,-99999,-99999,-99999,NA,NA,-99999,-99999,-99999,-99999,-99999,-99999,-99999,-99999,-99999,-99999,-99999,-99999
"22",AK00037,FAWN LAKE DAM NORTH,55.3531,-131.6217,Conventional storage dam,-99999,0.0986784,NID2019,0.0986784,NID2019,2.1336,2.1336,NID2019,NID2019,0.573722138304,0.573722138304,0.286861069152,0.286861069152,-99999,-99999,-99999,-99999,-99999,-99999,-99999,-99999,-99999,-99999,-99999,-99999,-99999,-99999,-99999,-99999,NA,NA,-99999,-99999,-99999,-99999,-99999,-99999,-99999,-99999,-99999,-99999,-99999,-99999
"23",AK00044,LONG LAKE DAM,58.16667,-133.7333,Conventional storage dam,78.2,181.32156,NID2019,181.3,GRanDv1.3,6.4008,6.3,NID2019,GRanDv1.3,3162.6432874008,3112.46775,1581.3216437004,1556.233875,40.4430087902916,39.8013778772378,20.2215043951458,19.9006889386189,-99999,-99999,-99999,-99999,-99999,-99999,-99999,-99999,-99999,-99999,-99999,-99999,NA,NA,-99999,-99999,-99999,-99999,-99999,-99999,-99999,-99999,-99999,-99999,-99999,-99999
"24",AK00059,DEWEY FOREBAY,59.4511,-135.3081,Run-of-River,1,0.0431718,NID2019,0.0431718,NID2019,6.4008,6.4008,NID2019,NID2019,0.753010306524,0.753010306524,0.376505153262,0.376505153262,0.753010306524,0.753010306524,0.376505153262,0.376505153262,-99999,-99999,-99999,-99999,-99999,-99999,-99999,-99999,-99999,-99999,-99999,-99999,NA,NA,-99999,-99999,-99999,-99999,-99999,-99999,-99999,-99999,-99999,-99999,-99999,-99999
"25",AK00082,ROYCROFT LAKE,60.45935,-149.36284,Conventional storage dam,-99999,155,HydroLAKES,0.004440528,NID2019,1.557528,1.557528,NID2019,NID2019,657.860889,0.0188467722432864,328.9304445,0.0094233861216432,-99999,-99999,-99999,-99999,-99999,-99999,-99999,-99999,-99999,-99999,-99999,-99999,-99999,-99999,-99999,-99999,NA,NA,-99999,-99999,-99999,-99999,-99999,-99999,-99999,-99999,-99999,-99999,-99999,-99999
"26",AK00093,LOWER EKLUTNA,61.45,-149.325,Conventional storage dam,-99999,0.0185022,NID2019,0.0185022,NID2019,12.8016,12.8016,NID2019,NID2019,0.645437405592,0.645437405592,0.322718702796,0.322718702796,-99999,-99999,-99999,-99999,-99999,-99999,-99999,-99999,-99999,-99999,-99999,-99999,-99999,-99999,-99999,-99999,NA,NA,-99999,-99999,-99999,-99999,-99999,-99999,-99999,-99999,-99999,-99999,-99999,-99999
"27",AK00103,CHIGNIK,56.2867,-158.4233,Run-of-River,0.06,0.08881056,NID2019,0.08881056,NID2019,3.52044,3.52044,NID2019,NID2019,0.85197737538144,0.85197737538144,0.42598868769072,0.42598868769072,14.199622923024,14.199622923024,7.099811461512,7.099811461512,-99999,-99999,-99999,-99999,-99999,-99999,-99999,-99999,-99999,-99999,-99999,-99999,NA,NA,-99999,-99999,-99999,-99999,-99999,-99999,-99999,-99999,-99999,-99999,-99999,-99999
"28",AK00142,GRANITE DIVERSION,55.355,-131.6167,Conventional storage dam,-99999,0.56246688,NID2019,0.56246688,NID2019,2.98704,2.98704,NID2019,NID2019,4.57830266366592,4.57830266366592,2.28915133183296,2.28915133183296,-99999,-99999,-99999,-99999,-99999,-99999,-99999,-99999,-99999,-99999,-99999,-99999,-99999,-99999,-99999,-99999,NA,NA,-99999,-99999,-99999,-99999,-99999,-99999,-99999,-99999,-99999,-99999,-99999,-99999
"29",AK00184,BLUFF LAKE DIVERSION,55.77806,-131.4505,Conventional storage dam,-99999,5.69,HydroLAKES,1.23348,NID2019,2.1336,2.1336,NID2019,NID2019,33.0820014,7.1715267288,16.5410007,3.5857633644,-99999,-99999,-99999,-99999,-99999,-99999,-99999,-99999,-99999,-99999,-99999,-99999,-99999,-99999,-99999,-99999,NA,NA,-99999,-99999,-99999,-99999,-99999,-99999,-99999,-99999,-99999,-99999,-99999,-99999
"30",AK00207,MAHOONA DAM,57.9232,-152.4819,Conventional storage dam,0.135,0.3762114,NID2019,0.3762114,NID2019,2.77368,2.77368,NID2019,NID2019,2.8435103479692,2.8435103479692,1.4217551739846,1.4217551739846,21.0630396145867,21.0630396145867,10.5315198072933,10.5315198072933,-99999,-99999,-99999,-99999,-99999,-99999,-99999,-99999,-99999,-99999,-99999,-99999,NA,NA,-99999,-99999,-99999,-99999,-99999,-99999,-99999,-99999,-99999,-99999,-99999,-99999
"31",AK00264,AKUTAN HYDRO DAM,54.14359,-165.772,Conventional storage dam,0.1,0.0246696,NID2019,0.0246696,NID2019,4.48056,4.48056,NID2019,NID2019,0.3012041226096,0.3012041226096,0.1506020613048,0.1506020613048,3.012041226096,3.012041226096,1.506020613048,1.506020613048,-99999,-99999,-99999,-99999,-99999,-99999,-99999,-99999,-99999,-99999,-99999,-99999,NA,NA,-99999,-99999,-99999,-99999,-99999,-99999,-99999,-99999,-99999,-99999,-99999,-99999
"32",AK83009,SHOTGUN CREEK DIV,57.6167,-152.9167,Conventional storage dam,-99999,0.3515418,NID2019,0.3515418,NID2019,8.5344,8.5344,NID2019,NID2019,8.175540470832,8.175540470832,4.087770235416,4.087770235416,-99999,-99999,-99999,-99999,-99999,-99999,-99999,-99999,-99999,-99999,-99999,-99999,-99999,-99999,-99999,-99999,NA,NA,-99999,-99999,-99999,-99999,-99999,-99999,-99999,-99999,-99999,-99999,-99999,-99999
"33",AK83013,SWAN LAKE,55.61471,-131.34461,Conventional storage dam,22.6,178.56226524,NID2019,153,GRanDv1.3,37.12464,37.1,NID2019,GRanDv1.3,18064.1879948382,15467.9175,9032.09399741909,7733.95875,799.300353753902,684.421128318584,399.650176876951,342.210564159292,-99999,-99999,-99999,-99999,-99999,-99999,-99999,-99999,-99999,-99999,-99999,-99999,NA,NA,-99999,-99999,-99999,-99999,-99999,-99999,-99999,-99999,-99999,-99999,-99999,-99999
"34",AK84001,BART LAKE DAM,58.22718,-134.02562,Conventional storage dam,-99999,12.64,HydroLAKES,2.46696,NID2019,6.61416,6.61416,NID2019,NID2019,227.81812704,44.46346571856,113.90906352,22.23173285928,-99999,-99999,-99999,-99999,-99999,-99999,-99999,-99999,-99999,-99999,-99999,-99999,-99999,-99999,-99999,-99999,NA,NA,-99999,-99999,-99999,-99999,-99999,-99999,-99999,-99999,-99999,-99999,-99999,-99999
"35",AL00292,ELBA,31.364,-86.0936,Conventional storage dam,2.447,1.171806,NID2019,1.171806,NID2019,8.32104,8.32104,NID2019,NID2019,26.570506530204,26.570506530204,13.285253265102,13.285253265102,10.8584007070715,10.8584007070715,5.42920035353576,5.42920035353576,-99999,-99999,-99999,-99999,-99999,-99999,-99999,-99999,-99999,-99999,-99999,-99999,NA,NA,-99999,-99999,-99999,-99999,-99999,-99999,-99999,-99999,-99999,-99999,-99999,-99999
"36",AL01413,POINT A,31.361,-86.5184,Run-of-River,5.2,15.28,HydroLAKES,2.837004,NID2019,11.94816,11.94816,NID2019,NID2019,497.49748608,92.369264266944,248.74874304,46.184632133472,95.6725934769231,17.7633200513354,47.8362967384615,8.88166002566769,-99999,-99999,-99999,-99999,-99999,-99999,-99999,-99999,-99999,-99999,-99999,-99999,NA,NA,-99999,-99999,-99999,-99999,-99999,-99999,-99999,-99999,-99999,-99999,-99999,-99999
"37",AL01414,GANTT,31.4032,-86.4796,Run-of-River,3,18.1,GRanDv1.3,18.0643146,NID2019,9.38784,9.1,NID2019,GRanDv1.3,463.0317384,447.9498412935,231.5158692,223.97492064675,154.3439128,149.3166137645,77.1719564,74.65830688225,-99999,-99999,-99999,-99999,-99999,-99999,-99999,-99999,-99999,-99999,-99999,-99999,NA,NA,-99999,-99999,-99999,-99999,-99999,-99999,-99999,-99999,-99999,-99999,-99999,-99999
"38",AL01415,WEISS - MAIN DAM,34.1721,-85.7539,Conventional storage dam,87.6,377.938272,NID2019,377.8,GRanDv1.3,18.2,14.9352,GRanDv1.3,NID2019,18743.84859984,15375.863076,9371.92429992,7687.931538,213.970874427397,175.52355109589,106.985437213699,87.7617755479452,-99999,-99999,-99999,-99999,-99999,-99999,-99999,-99999,-99999,-99999,-99999,-99999,NA,NA,-99999,-99999,-99999,-99999,-99999,-99999,-99999,-99999,-99999,-99999,-99999,-99999
"39",AL01416,H. NEELY HENRY,33.7833,-86.0533,Conventional storage dam,72.9,150.3118728,NID2019,149,GRanDv1.3,22.4,16.1544,GRanDv1.3,NID2019,9175.036715712,6559.09026,4587.518357856,3279.54513,125.857842465185,89.9738032921811,62.9289212325926,44.9869016460905,-99999,-99999,-99999,-99999,-99999,-99999,-99999,-99999,-99999,-99999,-99999,-99999,NA,NA,-99999,-99999,-99999,-99999,-99999,-99999,-99999,-99999,-99999,-99999,-99999,-99999
"40",AL01417,LOGAN MARTIN,33.4267,-86.3383,Conventional storage dam,128.1,801.8,GRanDv1.3,336.74004,NID2019,30.1,28.956,GRanDv1.3,NID2019,65765.6405,26570.506530204,32882.82025,13285.253265102,513.392978142076,207.42003536459,256.696489071038,103.710017682295,-99999,-99999,-99999,-99999,-99999,-99999,-99999,-99999,-99999,-99999,-99999,-99999,NA,NA,-99999,-99999,-99999,-99999,-99999,-99999,-99999,-99999,-99999,-99999,-99999,-99999
"41",AL01418,LAY,32.9637,-86.5171,Run-of-River,177,326.9,GRanDv1.3,324.158544,NID2019,30.1,26.2128,GRanDv1.3,NID2019,26813.15525,23154.6058988947,13406.577625,11577.3029494474,151.486752824859,130.816982479631,75.7433764124294,65.4084912398156,-99999,-99999,-99999,-99999,-99999,-99999,-99999,-99999,-99999,-99999,-99999,-99999,NA,NA,-99999,-99999,-99999,-99999,-99999,-99999,-99999,-99999,-99999,-99999,-99999,-99999
"42",AL01419,WALTER BOULDIN,32.5838,-86.2833,Run-of-River,225,289.9,GRanDv1.3,59.20704,NID2019,37.12464,36.4,NID2019,GRanDv1.3,29327.6302956,5872.7462976,14663.8151478,2936.3731488,130.345023536,26.101094656,65.172511768,13.050547328,-99999,-99999,-99999,-99999,-99999,-99999,-99999,-99999,-99999,-99999,-99999,-99999,NA,NA,-99999,-99999,-99999,-99999,-99999,-99999,-99999,-99999,-99999,-99999,-99999,-99999
"43",AL01420,LEWIS SMITH,33.9417,-87.1083,Conventional storage dam,181,2060.8,GRanDv1.3,1714.5372,NID2019,64.008,63.7,NID2019,GRanDv1.3,359448.44544,297613.653519,179724.22272,148806.8267595,1985.90301348066,1644.27432883425,992.951506740332,822.137164417127,-99999,-99999,-99999,-99999,-99999,-99999,-99999,-99999,-99999,-99999,-99999,-99999,NA,NA,-99999,-99999,-99999,-99999,-99999,-99999,-99999,-99999,-99999,-99999,-99999,-99999
"44",AL01421,YATES,32.5744,-85.8893,Conventional storage dam,50.5,66.60792,NID2019,66.60792,NID2019,18.56232,18.56232,NID2019,NID2019,3369.18325719024,3369.18325719024,1684.59162859512,1684.59162859512,66.716500142381,66.716500142381,33.3582500711905,33.3582500711905,-99999,-99999,-99999,-99999,-99999,-99999,-99999,-99999,-99999,-99999,-99999,-99999,NA,NA,-99999,-99999,-99999,-99999,-99999,-99999,-99999,-99999,-99999,-99999,-99999,-99999
"45",AL01422,THURLOW,32.535,-85.8883,Conventional storage dam,91,22.51101,NID2019,22.5,GRanDv1.3,18.9,13.22832,GRanDv1.3,NID2019,1159.373292525,811.06137,579.6866462625,405.530685,12.7403658519231,8.91276230769231,6.37018292596154,4.45638115384615,-99999,-99999,-99999,-99999,-99999,-99999,-99999,-99999,-99999,-99999,-99999,-99999,NA,NA,-99999,-99999,-99999,-99999,-99999,-99999,-99999,-99999,-99999,-99999,-99999,-99999
"46",AL01423,JORDAN,32.6187,-86.2583,Run-of-River,100,289.9,GRanDv1.3,289.8678,NID2019,26.67,26.6,NID2019,GRanDv1.3,21068.699925,21011.067483,10534.3499625,10505.5337415,210.68699925,210.11067483,105.343499625,105.055337415,-99999,-99999,-99999,-99999,-99999,-99999,-99999,-99999,-99999,-99999,-99999,-99999,NA,NA,-99999,-99999,-99999,-99999,-99999,-99999,-99999,-99999,-99999,-99999,-99999,-99999
"47",AL01424,MITCHELL,32.805,-86.4467,Run-of-River,170,212.2,GRanDv1.3,212.15856,NID2019,22.4,18.288,GRanDv1.3,NID2019,12952.688,10572.879405888,6476.344,5286.439702944,76.1922823529412,62.1934082699294,38.0961411764706,31.0967041349647,-99999,-99999,-99999,-99999,-99999,-99999,-99999,-99999,-99999,-99999,-99999,-99999,NA,NA,-99999,-99999,-99999,-99999,-99999,-99999,-99999,-99999,-99999,-99999,-99999,-99999
"48",AL01425,MARTIN,32.68,-85.9117,Conventional storage dam,210.6,2004.4,GRanDv1.3,2000.70456,NID2019,37.1,35.84448,GRanDv1.3,NID2019,202639.829,195421.234749108,101319.9145,97710.6173745542,962.202416904083,927.926090926441,481.101208452042,463.963045463221,-99999,-99999,-99999,-99999,-99999,-99999,-99999,-99999,-99999,-99999,-99999,-99999,NA,NA,-99999,-99999,-99999,-99999,-99999,-99999,-99999,-99999,-99999,-99999,-99999,-99999
"49",AL01426,HOLT LOCK AND DAM,33.25333,-87.45,Lock & Dam,46.9,145.5383052,NID2019,145.5383052,NID2019,25.6032,25.6032,NID2019,NID2019,10154.0212647733,10154.0212647733,5077.01063238667,5077.01063238667,216.503651700924,216.503651700924,108.251825850462,108.251825850462,-99999,-99999,-99999,-99999,-99999,-99999,-99999,-99999,-99999,-99999,-99999,-99999,NA,NA,-99999,-99999,-99999,-99999,-99999,-99999,-99999,-99999,-99999,-99999,-99999,-99999
"50",AL01427,JOHN HOLLIS BANKHEAD LOCK DAM,33.45667,-87.355,Lock & Dam,53.9,332.0713182,NID2019,332.0713182,NID2019,23.68296,23.68296,NID2019,NID2019,21430.5765080622,21430.5765080622,10715.2882540311,10715.2882540311,397.59882204197,397.59882204197,198.799411020985,198.799411020985,-99999,-99999,-99999,-99999,-99999,-99999,-99999,-99999,-99999,-99999,-99999,-99999,NA,NA,-99999,-99999,-99999,-99999,-99999,-99999,-99999,-99999,-99999,-99999,-99999,-99999
"51",AL01432,"WALTER F GEORGE LOCK,DAM,POWERHOUSE",31.62667,-85.06333,Lock & Dam,168,1152.6,GRanDv1.3,1152.07032,NID2019,36.4,30.7848,GRanDv1.3,NID2019,114326.394,96645.5432049456,57163.197,48322.7716024728,680.51425,575.271090505629,340.257125,287.635545252814,1241.806,922.179,1084.028,1097.548,1055.504,1127.701,20.12,18.26,19.33,19.426,19.153,19.617,Gao,1984-2018,68085.735,45885.86,57101.522,58099.63,55088.663,60281.752,405.272232142857,273.130119047619,339.890011904762,345.831130952381,327.908708333333,358.819952380952
"52",AL01434,ROBERT F. HENRY LOCK AND DAM,32.32333,-86.78333,Lock & Dam,82,288.881016,NID2019,288.881016,NID2019,21.336,21.336,NID2019,NID2019,16795.7155988496,16795.7155988496,8397.8577994248,8397.8577994248,204.825799985971,204.825799985971,102.412899992985,102.412899992985,338.766,256.218,290.332,291.169,287.897,294.004,10.816,9.402,10.121,10.139,10.075,10.195,Gao,1984-2018,9984.356,6564.254,8007.251,8044.491,7904.374,8168.111,121.76043902439,80.0518780487805,97.6494024390244,98.1035487804878,96.3948048780488,99.6111097560976
"53",AL01435,"MILLERS FERRY LOCK,DAM & POWERHOUSE",32.10167,-87.4,Lock & Dam,101.1,409.268664,NID2019,409.268664,NID2019,16.764,16.764,NID2019,NID2019,18696.1701819816,18696.1701819816,9348.0850909908,9348.0850909908,184.927499327217,184.927499327217,92.4637496636083,92.4637496636083,429.851,363.105,411.227,412.58,408.018,416.366,7.653,6.666,7.405,7.424,7.36,7.478,Gao,1984-2018,8964.32,6596.133,8297.597,8346.782,8183.454,8483.952,88.6678536102868,65.243649851632,82.0731651829871,82.5596636993076,80.9441543026706,83.9164391691395
"54",AL07701,WHEELER,34.80643,-87.38188,Lock & Dam,404,1318.6,GRanDv1.3,225.03115728,NID2019,37.338,15.4,NID2019,GRanDv1.3,134162.34153,9443.4325152552,67081.170765,4721.7162576276,332.085003787129,23.3748329585525,166.042501893564,11.6874164792762,-99999,-99999,-99999,-99999,-99999,-99999,-99999,-99999,-99999,-99999,-99999,-99999,NA,NA,-99999,-99999,-99999,-99999,-99999,-99999,-99999,-99999,-99999,-99999,-99999,-99999
"55",AL07702,WILSON,34.79997,-87.62551,Lock & Dam,666.7,1055.46,HydroLAKES,785.16305964,NID2019,29.4,29.23032,GRanDv1.3,NID2019,84558.1779,62540.2963978684,42279.08895,31270.1481989342,126.830925303735,93.8057543090871,63.4154626518674,46.9028771545435,-99999,-99999,-99999,-99999,-99999,-99999,-99999,-99999,-99999,-99999,-99999,-99999,NA,NA,-99999,-99999,-99999,-99999,-99999,-99999,-99999,-99999,-99999,-99999,-99999,-99999
"56",AL09501,GUNTERSVILLE,34.42367,-86.39222,Lock & Dam,115.2,1293.9,GRanDv1.3,1255.68264,NID2019,20.3,20.05584,GRanDv1.3,NID2019,71575.31325,68625.773573233,35787.656625,34312.8867866165,621.313483072917,595.709840045425,310.656741536458,297.854920022713,-99999,-99999,-99999,-99999,-99999,-99999,-99999,-99999,-99999,-99999,-99999,-99999,NA,NA,-99999,-99999,-99999,-99999,-99999,-99999,-99999,-99999,-99999,-99999,-99999,-99999
"57",AL83001,R. L. HARRIS,33.2585,-85.613,Conventional storage dam,135,525.5,GRanDv1.3,525.46248,NID2019,34.77768,32.2,NID2019,GRanDv1.3,49801.203039,46106.7053076,24900.6015195,23053.3526538,368.897800288889,341.531150426667,184.448900144444,170.765575213333,-99999,-99999,-99999,-99999,-99999,-99999,-99999,-99999,-99999,-99999,-99999,-99999,NA,NA,-99999,-99999,-99999,-99999,-99999,-99999,-99999,-99999,-99999,-99999,-99999,-99999
"58",AR00150,BLAKELY MOUNTAIN DAM,34.5746,-93.1951,Conventional storage dam,75,4638.8,GRanDv1.3,2653.338828,NID2019,51.2064,51.1,NID2019,GRanDv1.3,647286.276672,369470.79845193,323643.138336,184735.399225965,8630.48368896,4926.2773126924,4315.24184448,2463.1386563462,-99999,-99999,-99999,-99999,-99999,-99999,52.471,47.025,49.291,49.405,48.463,50.066,Gao,1984-2018,-99999,-99999,-99999,-99999,-99999,-99999,-99999,-99999,-99999,-99999,-99999,-99999
"59",AR00151,DEGRAY DAM,34.22,-93.11,Has PS already,40,1698.6,GRanDv1.3,807.559356,NID2019,51.8,20.90928,GRanDv1.3,NID2019,239765.883,46012.9457835845,119882.9415,23006.4728917923,5994.147075,1150.32364458961,2997.0735375,575.161822294807,-99999,-99999,-99999,-99999,-99999,-99999,-99999,-99999,-99999,-99999,-99999,-99999,NA,NA,-99999,-99999,-99999,-99999,-99999,-99999,-99999,-99999,-99999,-99999,-99999,-99999
"60",AR00154,NARROWS DAM,34.14833,-93.715,Conventional storage dam,25.5,740.8,GRanDv1.3,345.004356,NID2019,42,41.81856,GRanDv1.3,NID2019,84784.56,39315.1701104891,42392.28,19657.5850552445,3324.88470588235,1541.77137688192,1662.44235294118,770.885688440962,-99999,-99999,-99999,-99999,-99999,-99999,-99999,-99999,-99999,-99999,-99999,-99999,NA,NA,-99999,-99999,-99999,-99999,-99999,-99999,-99999,-99999,-99999,-99999,-99999,-99999
"61",AR00159,NORFORK,36.24897,-92.23784,Conventional storage dam,80.4,2446,GRanDv1.3,38.23788,NID2019,53.2,52.91328,GRanDv1.3,NID2019,354596.62,5513.46974910144,177298.31,2756.73487455072,4410.40572139303,68.5754943918089,2205.20286069652,34.2877471959045,2414.079,1214.41,1590.858,1551.408,1482.53,1644.645,64.528,52.232,56.682,56.335,55.559,57.347,Gao,1984-2018,424487.377,172850.872,245720.356,238161.643,224450.636,257009.124,5279.69374378109,2149.88646766169,3056.22333333333,2962.20949004975,2791.67457711443,3196.63089552239
"62",AR00160,BULL SHOALS,36.367,-92.575,Conventional storage dam,340,6670.7,GRanDv1.3,3759.64704,NID2019,60.2,60.16752,GRanDv1.3,NID2019,1094294.9815,616418.539836584,547147.49075,308209.269918292,3218.51465147059,1812.99570540172,1609.25732573529,906.497852700858,6566.112,3094.31,3932.982,3746.424,3571.856,4049.054,77.474,61.449,66.075,65.269,64.3,66.873,Gao,1984-2018,1386211.792,518140.091,708151.381,666329.605,625853.926,737857.434,4077.09350588235,1523.94144411765,2082.79817941176,1959.79295588235,1840.74684117647,2170.16892352941
"63",AR00162,DARDANELLE LOCK & DAM,35.25,-93.16667,Lock & Dam,160.8,599.7,GRanDv1.3,519.171732,NID2019,18.9,16.764,GRanDv1.3,NID2019,30886.04925,23716.7511440508,15443.024625,11858.3755720254,192.077420708955,147.492233482903,96.0387103544776,73.7461167414515,606.48,543.762,590.388,591.425,587.479,594.89,8.071,7.604,7.954,7.962,7.933,7.987,Gao,1984-2018,13338.195,11266.802,12796.749,12831.983,12699.277,12948.196,82.948973880597,70.0671766169154,79.5817723880597,79.8008893034826,78.9756032338308,80.5236069651741
"64",AR00163,JAMES W. TRIMBLE LOCK & DAM,35.35,-94.29167,Lock & Dam,32.4,65.497788,NID2019,65.497788,NID2019,7.9248,7.9248,NID2019,NID2019,1414.42997168304,1414.42997168304,707.21498584152,707.21498584152,43.6552460396,43.6552460396,21.8276230198,21.8276230198,-99999,-99999,-99999,-99999,-99999,-99999,-99999,-99999,-99999,-99999,-99999,-99999,NA,NA,-99999,-99999,-99999,-99999,-99999,-99999,-99999,-99999,-99999,-99999,-99999,-99999
"65",AR00164,OZARK LOCK & DAM,35.47333,-93.81,Lock & Dam,100,159.11892,NID2019,159.11892,NID2019,10.0584,10.0584,NID2019,NID2019,4361.3127549288,4361.3127549288,2180.6563774644,2180.6563774644,43.613127549288,43.613127549288,21.806563774644,21.806563774644,188.262,164.911,179.112,179.186,177.477,181.228,6.496,5.925,6.284,6.287,6.244,6.337,Gao,1984-2018,3332.687,2662.407,3066.909,3069.651,3019.843,3129.527,33.32687,26.62407,30.66909,30.69651,30.19843,31.29527
"66",AR00165,ARTHUR V. ORMOND LOCK&DAM,35.125,-92.78667,Lock & Dam,32.4,60.193824,NID2019,60.193824,NID2019,7.9248,7.9248,NID2019,NID2019,1299.89044478592,1299.89044478592,649.94522239296,649.94522239296,40.1200754563556,40.1200754563556,20.0600377281778,20.0600377281778,-99999,-99999,-99999,-99999,-99999,-99999,-99999,-99999,-99999,-99999,-99999,-99999,NA,NA,-99999,-99999,-99999,-99999,-99999,-99999,-99999,-99999,-99999,-99999,-99999,-99999
"67",AR00169,WILBUR D. MILLS DAM,33.98833,-91.31333,Lock & Dam,102.6,135.7814784,NID2019,135.7814784,NID2019,4.2672,4.2672,NID2019,NID2019,1578.88332461261,1578.88332461261,789.441662306304,789.441662306304,15.3887263607467,15.3887263607467,7.69436318037333,7.69436318037333,-99999,-99999,-99999,-99999,-99999,-99999,-99999,-99999,-99999,-99999,-99999,-99999,NA,NA,-99999,-99999,-99999,-99999,-99999,-99999,-99999,-99999,-99999,-99999,-99999,-99999
"68",AR00171,MURRAY LOCK & DAM,34.79167,-92.35833,Lock & Dam,45.4,107.436108,NID2019,107.436108,NID2019,6.7056,6.7056,NID2019,NID2019,1963.15421681808,1963.15421681808,981.57710840904,981.57710840904,43.2412823087683,43.2412823087683,21.6206411543841,21.6206411543841,-99999,-99999,-99999,-99999,-99999,-99999,-99999,-99999,-99999,-99999,-99999,-99999,NA,NA,-99999,-99999,-99999,-99999,-99999,-99999,-99999,-99999,-99999,-99999,-99999,-99999
"69",AR00173,GREERS FERRY,35.52113,-91.9937,Conventional storage dam,96,3508,GRanDv1.3,2355.9468,NID2019,52.5,51.84648,GRanDv1.3,NID2019,501863.25,332852.070063794,250931.625,166426.035031897,5227.7421875,3467.20906316452,2613.87109375,1733.60453158226,-99999,-99999,-99999,-99999,-99999,-99999,-99999,-99999,-99999,-99999,-99999,-99999,NA,NA,-99999,-99999,-99999,-99999,-99999,-99999,-99999,-99999,-99999,-99999,-99999,-99999
"70",AR00174,BEAVER,36.41667,-93.84833,Conventional storage dam,112,2407.8,GRanDv1.3,2037.70896,NID2019,49,48.64608,GRanDv1.3,NID2019,321501.495,270119.857156289,160750.7475,135059.928578145,2870.5490625,2411.78443889544,1435.27453125,1205.89221944772,2390.132,1573.545,2009.838,2022.864,1876.764,2100.209,67.294,59.941,64.082,64.249,62.928,64.92,Gao,1984-2018,438295.608,257021.236,350966.372,354160.561,321826.871,371541.743,3913.35364285714,2294.83246428571,3133.62832142857,3162.14786607143,2873.45420535714,3317.33699107143
"71",AR00534,CARPENTER,34.4428,-93.0265,Conventional storage dam,56,225.9241968,NID2019,225.9,GRanDv1.3,23.8,23.4696,GRanDv1.3,NID2019,14652.313783464,14447.357694,7326.156891732,7223.678847,261.648460419,257.98853025,130.8242302095,128.994265125,-99999,-99999,-99999,-99999,-99999,-99999,-99999,-99999,-99999,-99999,-99999,-99999,NA,NA,-99999,-99999,-99999,-99999,-99999,-99999,-99999,-99999,-99999,-99999,-99999,-99999
"72",AR00535,REMMEL,34.4272,-92.8939,Conventional storage dam,9,41.1242232,NID2019,41.1,GRanDv1.3,16.1,16.002,GRanDv1.3,NID2019,1804.222482342,1792.183995,902.111241171,896.0919975,200.469164704667,199.131555,100.234582352333,99.5657775,-99999,-99999,-99999,-99999,-99999,-99999,-99999,-99999,-99999,-99999,-99999,-99999,NA,NA,-99999,-99999,-99999,-99999,-99999,-99999,-99999,-99999,-99999,-99999,-99999,-99999
"73",AR01319,WHITE RIVER L AND D NO. 1,35.75714,-91.63748,Run-of-River,4.3,15.4185,NID2019,15.4185,NID2019,5.97408,5.97408,NID2019,NID2019,251.003435508,251.003435508,125.501717754,125.501717754,58.3728919786046,58.3728919786046,29.1864459893023,29.1864459893023,-99999,-99999,-99999,-99999,-99999,-99999,-99999,-99999,-99999,-99999,-99999,-99999,NA,NA,-99999,-99999,-99999,-99999,-99999,-99999,-99999,-99999,-99999,-99999,-99999,-99999
"74",AR01320,WHITE RIVER LOCK & DAM NO. 2,35.74427,-91.76573,Lock & Dam,3.5,10.58449188,NID2019,10.58449188,NID2019,6.18744,6.18744,NID2019,NID2019,178.462725493515,178.462725493515,89.2313627467576,89.2313627467576,50.9893501410043,50.9893501410043,25.4946750705022,25.4946750705022,-99999,-99999,-99999,-99999,-99999,-99999,-99999,-99999,-99999,-99999,-99999,-99999,NA,NA,-99999,-99999,-99999,-99999,-99999,-99999,-99999,-99999,-99999,-99999,-99999,-99999
"75",AR01321,WHITE RIVER LOCK & DAM NO. 3,35.84356,-91.85021,Run-of-River,4.3,12.63330216,NID2019,12.63330216,NID2019,4.48056,4.48056,NID2019,NID2019,154.246631188376,154.246631188376,77.1233155941881,77.1233155941881,35.8713095786921,35.8713095786921,17.9356547893461,17.9356547893461,-99999,-99999,-99999,-99999,-99999,-99999,-99999,-99999,-99999,-99999,-99999,-99999,NA,NA,-99999,-99999,-99999,-99999,-99999,-99999,-99999,-99999,-99999,-99999,-99999,-99999
"76",AR01492,LEE CREEK,35.4866,-94.4148,Run-of-River,1.3,23.4,HydroLAKES,8.77991064,NID2019,8.5344,8.5344,NID2019,NID2019,544.196016,204.187709022394,272.098008,102.093854511197,418.61232,157.067468478764,209.30616,78.5337342393822,-99999,-99999,-99999,-99999,-99999,-99999,-99999,-99999,-99999,-99999,-99999,-99999,NA,NA,-99999,-99999,-99999,-99999,-99999,-99999,-99999,-99999,-99999,-99999,-99999,-99999
"77",AR01499,KULP LAKE,34.75778,-94.11444,Conventional storage dam,-99999,0.06044052,NID2019,0.06044052,NID2019,6.4008,6.4008,NID2019,NID2019,1.0542144291336,1.0542144291336,0.5271072145668,0.5271072145668,-99999,-99999,-99999,-99999,-99999,-99999,-99999,-99999,-99999,-99999,-99999,-99999,-99999,-99999,-99999,-99999,NA,NA,-99999,-99999,-99999,-99999,-99999,-99999,-99999,-99999,-99999,-99999,-99999,-99999
"78",AZ00021,CC CRAGIN,34.5544,-111.1838,Conventional storage dam,3,18.5022,NID2019,18.5,GRanDv1.3,36.4,36.2712,GRanDv1.3,NID2019,1835.233218,1828.52187,917.616609,914.260935,611.744406,609.50729,305.872203,304.753645,-99999,-99999,-99999,-99999,-99999,-99999,-99999,-99999,-99999,-99999,-99999,-99999,NA,NA,-99999,-99999,-99999,-99999,-99999,-99999,-99999,-99999,-99999,-99999,-99999,-99999
"79",AZ10307,GLEN CANYON,36.9379,-111.4842,Conventional storage dam,1312,33303.96,NID2019,25070,GRanDv1.3,151.4856,151.2,NID2019,GRanDv1.3,13747816.7391096,10329341.4,6873908.3695548,5164670.7,10478.5188560287,7872.97362804878,5239.25942801433,3936.48681402439,-99999,-99999,-99999,-99999,-99999,-99999,-99999,-99999,-99999,-99999,-99999,-99999,NA,NA,-99999,-99999,-99999,-99999,-99999,-99999,-99999,-99999,-99999,-99999,-99999,-99999
"80",AZ10309,DAVIS,35.1959,-114.57,Conventional storage dam,254.8,2242.9,GRanDv1.3,1964.070204,NID2019,42.7,42.672,GRanDv1.3,NID2019,260978.23675,228384.440205365,130489.118375,114192.220102682,1024.24739697802,896.328258262813,512.123698489011,448.164129131407,-99999,-99999,-99999,-99999,-99999,-99999,-99999,-99999,-99999,-99999,-99999,-99999,NA,NA,-99999,-99999,-99999,-99999,-99999,-99999,-99999,-99999,-99999,-99999,-99999,-99999
"81",AZ10311,HORSE MESA,33.5906,-111.3439,Has PS already,29.7,302.3,GRanDv1.3,302.26180704,NID2019,65.1,65.0748,GRanDv1.3,NID2019,53627.26425,53599.732596089,26813.632125,26799.8662980445,1805.63179292929,1804.70480121512,902.815896464646,902.352400607558,-99999,-99999,-99999,-99999,-99999,-99999,-99999,-99999,-99999,-99999,-99999,-99999,NA,NA,-99999,-99999,-99999,-99999,-99999,-99999,-99999,-99999,-99999,-99999,-99999,-99999
"82",AZ10312,PARKER,34.2966,-114.1392,Conventional storage dam,120,803,GRanDv1.3,222.0264,NID2019,68.6,24.384,GRanDv1.3,NID2019,150108.805,14752.85498496,75054.4025,7376.42749248,1250.90670833333,122.940458208,625.453354166667,61.470229104,-99999,-99999,-99999,-99999,-99999,-99999,-99999,-99999,-99999,-99999,-99999,-99999,NA,NA,-99999,-99999,-99999,-99999,-99999,-99999,-99999,-99999,-99999,-99999,-99999,-99999
"83",AZ10313,MORMON FLAT,33.5534,-111.4429,Has PS already,9.2,71.4,GRanDv1.3,71.35928496,NID2019,47.6,43.2816,GRanDv1.3,NID2019,9261.294,8416.28247609491,4630.647,4208.14123804745,1006.66239130435,914.813312619012,503.331195652174,457.406656309506,-99999,-99999,-99999,-99999,-99999,-99999,-99999,-99999,-99999,-99999,-99999,-99999,NA,NA,-99999,-99999,-99999,-99999,-99999,-99999,-99999,-99999,-99999,-99999,-99999,-99999
"84",AZ10317,THEODORE ROOSEVELT,33.6715,-111.1615,Conventional storage dam,36,2038.99547964,NID2019,1641.8,GRanDv1.3,76.3,76.16952,GRanDv1.3,NID2019,423942.84263805,340775.1963756,211971.421319025,170387.5981878,11776.1900732792,9465.9776771,5888.09503663958,4732.98883855,-99999,-99999,-99999,-99999,-99999,-99999,-99999,-99999,-99999,-99999,-99999,-99999,NA,NA,-99999,-99999,-99999,-99999,-99999,-99999,-99999,-99999,-99999,-99999,-99999,-99999
"85",AZ10318,STEWART MOUNTAIN,33.5665,-111.5359,Conventional storage dam,13,86.0537322,NID2019,84.9,GRanDv1.3,44.1,35.6616,GRanDv1.3,NID2019,10341.2921328045,8250.400314,5170.64606640225,4125.200157,795.484010215731,634.646178,397.742005107865,317.323089,-99999,-99999,-99999,-99999,-99999,-99999,-99999,-99999,-99999,-99999,-99999,-99999,NA,NA,-99999,-99999,-99999,-99999,-99999,-99999,-99999,-99999,-99999,-99999,-99999,-99999
"86",AZ10437,HEADGATE ROCK,34.16854,-114.2773,Conventional storage dam,19.5,8.665197,NID2019,8.665197,NID2019,14.9352,14.9352,NID2019,NID2019,352.65982688874,352.65982688874,176.32991344437,176.32991344437,18.0851193276277,18.0851193276277,9.04255966381385,9.04255966381385,-99999,-99999,-99999,-99999,-99999,-99999,-99999,-99999,-99999,-99999,-99999,-99999,NA,NA,-99999,-99999,-99999,-99999,-99999,-99999,-99999,-99999,-99999,-99999,-99999,-99999
"87",CA00035,Oroville,39.5388,-121.4855,Has PS already,351,4366.5192,NID2019,4366.5,GRanDv1.3,164.5,164.2872,GRanDv1.3,NID2019,1957346.81289,1954806.16023,978673.406445,977403.080115,5576.48664641026,5569.24831974359,2788.24332320513,2784.62415987179,-99999,-99999,-99999,-99999,-99999,-99999,-99999,-99999,-99999,-99999,-99999,-99999,NA,NA,-99999,-99999,-99999,-99999,-99999,-99999,-99999,-99999,-99999,-99999,-99999,-99999
"88",CA00036,THERMALITO DIVERSION,39.5288,-121.5449,Conventional storage dam,3.4,16.43982144,NID2019,16.43982144,NID2019,30.51048,30.51048,NID2019,NID2019,1366.82414785268,1366.82414785268,683.412073926342,683.412073926342,402.007102309613,402.007102309613,201.003551154806,201.003551154806,-99999,-99999,-99999,-99999,-99999,-99999,-99999,-99999,-99999,-99999,-99999,-99999,NA,NA,-99999,-99999,-99999,-99999,-99999,-99999,-99999,-99999,-99999,-99999,-99999,-99999
"89",CA00041,THERMALITO FOREBAY,39.51531,-121.63039,Has PS already,32.6,14.6,GRanDv1.3,14.51559264,NID2019,19.6,19.41576,GRanDv1.3,NID2019,779.786,767.990191555117,389.893,383.995095777559,23.9198159509202,23.5579813360465,11.9599079754601,11.7789906680233,-99999,-99999,-99999,-99999,-99999,-99999,-99999,-99999,-99999,-99999,-99999,-99999,NA,NA,-99999,-99999,-99999,-99999,-99999,-99999,-99999,-99999,-99999,-99999,-99999,-99999
"90",CA00042,THERMALITO AFTERBAY,39.456,-121.637,Conventional storage dam,-99999,70.35893268,NID2019,70.3,GRanDv1.3,8.4,8.32104,GRanDv1.3,NID2019,1610.5159690452,1594.0408302,805.2579845226,797.0204151,-99999,-99999,-99999,-99999,-99999,-99999,-99999,-99999,-99999,-99999,-99999,-99999,-99999,-99999,-99999,-99999,NA,NA,-99999,-99999,-99999,-99999,-99999,-99999,-99999,-99999,-99999,-99999,-99999,-99999
"91",CA00049,CEDAR SPRINGS,34.305,-117.3193,Conventional storage dam,32.7,92.511,NID2019,60.2,HydroLAKES,53.12664,53.12664,NID2019,NID2019,13392.826166034,8715.1596588,6696.413083017,4357.5798294,409.56654942,266.518644,204.78327471,133.259322,-99999,-99999,-99999,-99999,-99999,-99999,-99999,-99999,-99999,-99999,-99999,-99999,NA,NA,-99999,-99999,-99999,-99999,-99999,-99999,-99999,-99999,-99999,-99999,-99999,-99999
"92",CA00052,PYRAMID,34.6443,-118.7643,Conventional storage dam,75.6,210.9,GRanDv1.3,209.6916,NID2019,90.3,90.03792,GRanDv1.3,NID2019,51895.63575,51448.5327524112,25947.817875,25724.2663762056,686.450208333333,680.536147518667,343.225104166667,340.268073759333,-99999,-99999,-99999,-99999,-99999,-99999,-99999,-99999,-99999,-99999,-99999,-99999,NA,NA,-99999,-99999,-99999,-99999,-99999,-99999,-99999,-99999,-99999,-99999,-99999,-99999
"93",CA00054,PERRIS,33.8633,-117.1978,Canal/conduit,7.9,162.14341296,NID2019,162.1,GRanDv1.3,28,27.7368,GRanDv1.3,NID2019,12371.542408848,12251.968638,6185.771204424,6125.984319,1566.01802643646,1550.88210607595,783.009013218228,775.441053037975,-99999,-99999,-99999,-99999,-99999,-99999,-99999,-99999,-99999,-99999,-99999,-99999,NA,NA,-99999,-99999,-99999,-99999,-99999,-99999,-99999,-99999,-99999,-99999,-99999,-99999
"94",CA00072,BIG PINE CREEK,37.1245,-118.4857,Conventional storage dam,3.2,1.32105708,NID2019,1.32105708,NID2019,2.1336,2.1336,NID2019,NID2019,7.6807051265448,7.6807051265448,3.8403525632724,3.8403525632724,2.40022035204525,2.40022035204525,1.20011017602263,1.20011017602263,-99999,-99999,-99999,-99999,-99999,-99999,-99999,-99999,-99999,-99999,-99999,-99999,NA,NA,-99999,-99999,-99999,-99999,-99999,-99999,-99999,-99999,-99999,-99999,-99999,-99999
"95",CA00075,LOWER FRANKLIN,34.0947,-118.412,Conventional storage dam,2,1.1348016,NID2019,1.1348016,NID2019,21.97608,21.97608,NID2019,NID2019,67.9573872821088,67.9573872821088,33.9786936410544,33.9786936410544,33.9786936410544,33.9786936410544,16.9893468205272,16.9893468205272,-99999,-99999,-99999,-99999,-99999,-99999,-99999,-99999,-99999,-99999,-99999,-99999,NA,NA,-99999,-99999,-99999,-99999,-99999,-99999,-99999,-99999,-99999,-99999,-99999,-99999
"96",CA00076,LOWER SAN FERNANDO,34.2853,-118.4812,Conventional storage dam,5.6,12.3,GRanDv1.3,12.14114364,NID2019,26.67,26.6,NID2019,GRanDv1.3,893.911725,880.0507967454,446.9558625,440.0253983727,159.62709375,157.15192799025,79.813546875,78.575963995125,-99999,-99999,-99999,-99999,-99999,-99999,-99999,-99999,-99999,-99999,-99999,-99999,NA,NA,-99999,-99999,-99999,-99999,-99999,-99999,-99999,-99999,-99999,-99999,-99999,-99999
"97",CA00077,DRINKWATER,34.5302,-118.5234,Conventional storage dam,111.5,0.11348016,NID2019,0.11348016,NID2019,22.4028,22.4028,NID2019,NID2019,6.9276948200208,6.9276948200208,3.4638474100104,3.4638474100104,0.0621317921078099,0.0621317921078099,0.0310658960539049,0.0310658960539049,-99999,-99999,-99999,-99999,-99999,-99999,-99999,-99999,-99999,-99999,-99999,-99999,NA,NA,-99999,-99999,-99999,-99999,-99999,-99999,-99999,-99999,-99999,-99999,-99999,-99999
"98",CA00082,HAIWEE,36.1376,-117.9531,Conventional storage dam,5.6,74.748888,NID2019,57.5,GRanDv1.3,17.5,17.28216,GRanDv1.3,NID2019,3564.5875965,2707.898445,1782.29379825,1353.9492225,636.533499375,483.55329375,318.2667496875,241.776646875,-99999,-99999,-99999,-99999,-99999,-99999,-99999,-99999,-99999,-99999,-99999,-99999,NA,NA,-99999,-99999,-99999,-99999,-99999,-99999,-99999,-99999,-99999,-99999,-99999,-99999
"99",CA00083,STONE CANYON,34.1067,-118.4551,Conventional storage dam,0.64,12.8,GRanDv1.3,12.79365456,NID2019,40.11168,39.9,NID2019,GRanDv1.3,1399.0953984,1391.0220761724,699.5476992,695.5110380862,2186.08656,2173.47199401937,1093.04328,1086.73599700969,-99999,-99999,-99999,-99999,-99999,-99999,-99999,-99999,-99999,-99999,-99999,-99999,NA,NA,-99999,-99999,-99999,-99999,-99999,-99999,-99999,-99999,-99999,-99999,-99999,-99999
"100",CA00090,LONG VALLEY,37.5872,-118.7064,Conventional storage dam,-99999,226.3004082,NID2019,226.3,GRanDv1.3,26.88336,26.6,NID2019,GRanDv1.3,16578.1243063711,16403.3555,8289.06215318554,8201.67775,-99999,-99999,-99999,-99999,-99999,-99999,-99999,-99999,-99999,-99999,-99999,-99999,-99999,-99999,-99999,-99999,NA,NA,-99999,-99999,-99999,-99999,-99999,-99999,-99999,-99999,-99999,-99999,-99999,-99999
"101",CA00091,WALKER LAKE,37.8775,-119.1587,Conventional storage dam,-99999,1.91,HydroLAKES,0.6660792,NID2019,2.37744,2.37744,NID2019,NID2019,12.37398084,4.3152100831008,6.18699042,2.1576050415504,-99999,-99999,-99999,-99999,-99999,-99999,-99999,-99999,-99999,-99999,-99999,-99999,-99999,-99999,-99999,-99999,NA,NA,-99999,-99999,-99999,-99999,-99999,-99999,-99999,-99999,-99999,-99999,-99999,-99999
"102",CA00095,UPPER GORGE,37.5459,-118.5898,Conventional storage dam,75,0.03207048,NID2019,0.03207048,NID2019,9.38784,9.38784,NID2019,NID2019,0.82042265777472,0.82042265777472,0.41021132888736,0.41021132888736,0.0109389687703296,0.0109389687703296,0.0054694843851648,0.0054694843851648,-99999,-99999,-99999,-99999,-99999,-99999,-99999,-99999,-99999,-99999,-99999,-99999,NA,NA,-99999,-99999,-99999,-99999,-99999,-99999,-99999,-99999,-99999,-99999,-99999,-99999
"103",CA00098,PLEASANT VALLEY,37.4141,-118.525,Conventional storage dam,3.2,4.718061,NID2019,4.718061,NID2019,18.56232,18.56232,NID2019,NID2019,238.650480717642,238.650480717642,119.325240358821,119.325240358821,74.5782752242631,74.5782752242631,37.2891376121316,37.2891376121316,-99999,-99999,-99999,-99999,-99999,-99999,-99999,-99999,-99999,-99999,-99999,-99999,NA,NA,-99999,-99999,-99999,-99999,-99999,-99999,-99999,-99999,-99999,-99999,-99999,-99999
"104",CA00120,EARLY INTAKE,37.8755,-119.9569,Conventional storage dam,-99999,0.1418502,NID2019,0.1418502,NID2019,11.94816,11.94816,NID2019,NID2019,4.6184632133472,4.6184632133472,2.3092316066736,2.3092316066736,-99999,-99999,-99999,-99999,-99999,-99999,-99999,-99999,-99999,-99999,-99999,-99999,-99999,-99999,-99999,-99999,NA,NA,-99999,-99999,-99999,-99999,-99999,-99999,-99999,-99999,-99999,-99999,-99999,-99999
"105",CA00121,LAKE ELEANOR,37.974,-119.8818,Conventional storage dam,-99999,35.3,GRanDv1.3,35.277528,NID2019,13.3,13.01496,GRanDv1.3,NID2019,1279.36025,1251.14455310645,639.680125,625.572276553224,-99999,-99999,-99999,-99999,-99999,-99999,-99999,-99999,-99999,-99999,-99999,-99999,-99999,-99999,-99999,-99999,NA,NA,-99999,-99999,-99999,-99999,-99999,-99999,-99999,-99999,-99999,-99999,-99999,-99999
"106",CA00122,Moccasin Lower,37.8123,-120.3057,Conventional storage dam,2.9,0.68334792,NID2019,0.68334792,NID2019,12.8016,12.8016,NID2019,NID2019,23.8381548465312,23.8381548465312,11.9190774232656,11.9190774232656,8.22005339535558,8.22005339535558,4.11002669767779,4.11002669767779,-99999,-99999,-99999,-99999,-99999,-99999,-99999,-99999,-99999,-99999,-99999,-99999,NA,NA,-99999,-99999,-99999,-99999,-99999,-99999,-99999,-99999,-99999,-99999,-99999,-99999
"107",CA00123,O' SHAUGHNESSY,37.9484,-119.789,Conventional storage dam,115.5,444.1,GRanDv1.3,444.0528,NID2019,66.56832,66.5,NID2019,GRanDv1.3,80559.1502352,80467.91802,40279.5751176,40233.95901,697.481820218182,696.691930909091,348.740910109091,348.345965454545,-99999,-99999,-99999,-99999,-99999,-99999,-99999,-99999,-99999,-99999,-99999,-99999,NA,NA,-99999,-99999,-99999,-99999,-99999,-99999,-99999,-99999,-99999,-99999,-99999,-99999
"108",CA00124,PRIEST,37.8005,-120.2674,Conventional storage dam,100,2.550096552,NID2019,2.550096552,NID2019,35.84448,35.84448,NID2019,NID2019,249.083761233235,249.083761233235,124.541880616617,124.541880616617,2.49083761233235,2.49083761233235,1.24541880616617,1.24541880616617,-99999,-99999,-99999,-99999,-99999,-99999,-99999,-99999,-99999,-99999,-99999,-99999,NA,NA,-99999,-99999,-99999,-99999,-99999,-99999,-99999,-99999,-99999,-99999,-99999,-99999
"109",CA00125,CHERRY VALLEY,37.9743,-119.9147,Conventional storage dam,156.8,337.4,GRanDv1.3,337.35678,NID2019,67.2084,67.2,NID2019,GRanDv1.3,61792.411086,61776.7735536,30896.205543,30888.3867768,394.084254375,393.984525214286,197.0421271875,196.992262607143,-99999,-99999,-99999,-99999,-99999,-99999,-99999,-99999,-99999,-99999,-99999,-99999,NA,NA,-99999,-99999,-99999,-99999,-99999,-99999,-99999,-99999,-99999,-99999,-99999,-99999
"110",CA00164,PARDEE,38.2571,-120.85,Conventional storage dam,23.6,244.22904,NID2019,244.2,GRanDv1.3,74.99604,73.5,NID2019,GRanDv1.3,49911.6745744294,48910.2075,24955.8372872147,24455.10375,2114.90146501819,2072.46641949153,1057.4507325091,1036.23320974576,-99999,-99999,-99999,-99999,-99999,-99999,-99999,-99999,-99999,-99999,-99999,-99999,NA,NA,-99999,-99999,-99999,-99999,-99999,-99999,-99999,-99999,-99999,-99999,-99999,-99999
"111",CA00173,CAMANCHE MAIN,38.2241,-121.0229,Conventional storage dam,10.8,514.5,GRanDv1.3,514.36116,NID2019,36.48456,36.4,NID2019,GRanDv1.3,51151.809177,51019.4834604,25575.9045885,25509.7417302,4736.2786275,4724.02624633333,2368.13931375,2362.01312316667,-99999,-99999,-99999,-99999,-99999,-99999,-99999,-99999,-99999,-99999,-99999,-99999,NA,NA,-99999,-99999,-99999,-99999,-99999,-99999,-99999,-99999,-99999,-99999,-99999,-99999
"112",CA00190,COGSWELL,34.2441,-117.9649,Conventional storage dam,-99999,11.06308212,NID2019,11.06308212,NID2019,56.75376,56.75376,NID2019,NID2019,1710.94985793415,1710.94985793415,855.474928967076,855.474928967076,-99999,-99999,-99999,-99999,-99999,-99999,-99999,-99999,-99999,-99999,-99999,-99999,-99999,-99999,-99999,-99999,NA,NA,-99999,-99999,-99999,-99999,-99999,-99999,-99999,-99999,-99999,-99999,-99999,-99999
"113",CA00200,SAN GABRIEL,34.2065,-117.8592,Conventional storage dam,5,56.53285536,NID2019,54.5,GRanDv1.3,81.29016,68.6,NID2019,GRanDv1.3,12522.9142366092,10187.9575,6261.45711830459,5093.97875,2504.58284732184,2037.5915,1252.29142366092,1018.79575,-99999,-99999,-99999,-99999,-99999,-99999,-99999,-99999,-99999,-99999,-99999,-99999,NA,NA,-99999,-99999,-99999,-99999,-99999,-99999,-99999,-99999,-99999,-99999,-99999,-99999
"114",CA00225,RED MOUNTAIN RESERVOIR,33.3959,-117.1876,Canal/conduit,5.9,1.665198,NID2019,1.665198,NID2019,25.6032,25.6032,NID2019,NID2019,116.17873300656,116.17873300656,58.08936650328,58.08936650328,19.691310679078,19.691310679078,9.84565533953898,9.84565533953898,-99999,-99999,-99999,-99999,-99999,-99999,-99999,-99999,-99999,-99999,-99999,-99999,NA,NA,-99999,-99999,-99999,-99999,-99999,-99999,-99999,-99999,-99999,-99999,-99999,-99999
"115",CA00227,CAMP FAR WEST,39.0501,-121.3165,Conventional storage dam,7.2,128.9,GRanDv1.3,115.6264152,NID2019,43.31208,39.2,NID2019,GRanDv1.3,15213.4763802,12351.213671664,7606.7381901,6175.606835832,2112.98283058333,1715.44634328667,1056.49141529167,857.723171643333,-99999,-99999,-99999,-99999,-99999,-99999,-99999,-99999,-99999,-99999,-99999,-99999,NA,NA,-99999,-99999,-99999,-99999,-99999,-99999,-99999,-99999,-99999,-99999,-99999,-99999
"116",CA00240,EXCHEQUER MAIN,37.585,-120.2702,Conventional storage dam,94.5,1480.2,GRanDv1.3,1263.823608,NID2019,104.5464,104.3,NID2019,GRanDv1.3,421692.608988,359200.78630674,210846.304494,179600.39315337,4462.35565066667,3801.06652176444,2231.17782533333,1900.53326088222,-99999,-99999,-99999,-99999,-99999,-99999,-99999,-99999,-99999,-99999,-99999,-99999,NA,NA,-99999,-99999,-99999,-99999,-99999,-99999,-99999,-99999,-99999,-99999,-99999,-99999
"117",CA00242,MCSWAIN,37.521,-120.3109,Conventional storage dam,9,12.3,GRanDv1.3,10.1823774,NID2019,21,15.24,GRanDv1.3,NID2019,703.8675,422.8639510446,351.93375,211.4319755223,78.2075,46.9848834494,39.10375,23.4924417247,-99999,-99999,-99999,-99999,-99999,-99999,-99999,-99999,-99999,-99999,-99999,-99999,NA,NA,-99999,-99999,-99999,-99999,-99999,-99999,-99999,-99999,-99999,-99999,-99999,-99999
"118",CA00245,BOWMAN MAIN,39.4485,-120.6527,Conventional storage dam,3.6,78.9,GRanDv1.3,78.572676,NID2019,37.23132,37.1,NID2019,GRanDv1.3,8004.8268783,7943.50111191,4002.41343915,3971.750555955,2223.56302175,2206.52808664167,1111.781510875,1103.26404332083,-99999,-99999,-99999,-99999,-99999,-99999,-99999,-99999,-99999,-99999,-99999,-99999,NA,NA,-99999,-99999,-99999,-99999,-99999,-99999,-99999,-99999,-99999,-99999,-99999,-99999
"119",CA00247,FRENCH LAKE,39.4207,-120.5423,Conventional storage dam,-99999,17,GRanDv1.3,16.96035,NID2019,21,20.2692,GRanDv1.3,NID2019,972.825,936.7806789495,486.4125,468.39033947475,-99999,-99999,-99999,-99999,-99999,-99999,-99999,-99999,-99999,-99999,-99999,-99999,-99999,-99999,-99999,-99999,NA,NA,-99999,-99999,-99999,-99999,-99999,-99999,-99999,-99999,-99999,-99999,-99999,-99999
"120",CA00248,MILTON MAIN,39.5222,-120.583,Conventional storage dam,-99999,0.246696,NID2019,0.246696,NID2019,7.89432,7.89432,NID2019,NID2019,5.306929779312,5.306929779312,2.653464889656,2.653464889656,-99999,-99999,-99999,-99999,-99999,-99999,-99999,-99999,-99999,-99999,-99999,-99999,-99999,-99999,-99999,-99999,NA,NA,-99999,-99999,-99999,-99999,-99999,-99999,-99999,-99999,-99999,-99999,-99999,-99999
"121",CA00249,LAKE COMBIE,39.0098,-121.0581,Canal/conduit,1.95,6.8519814,NID2019,5.05,HydroLAKES,21.336,21.336,NID2019,NID2019,398.37830978484,293.61003,199.18915489242,146.805015,204.296569120431,150.569246153846,102.148284560215,75.2846230769231,-99999,-99999,-99999,-99999,-99999,-99999,-99999,-99999,-99999,-99999,-99999,-99999,NA,NA,-99999,-99999,-99999,-99999,-99999,-99999,-99999,-99999,-99999,-99999,-99999,-99999
"122",CA00250,Sawmill Lake,39.4452,-120.6023,Conventional storage dam,-99999,3.7374444,NID2019,2.27,HydroLAKES,12.8016,12.8016,NID2019,NID2019,130.378355929584,79.1874972,65.189177964792,39.5937486,-99999,-99999,-99999,-99999,-99999,-99999,-99999,-99999,-99999,-99999,-99999,-99999,-99999,-99999,-99999,-99999,NA,NA,-99999,-99999,-99999,-99999,-99999,-99999,-99999,-99999,-99999,-99999,-99999,-99999
"123",CA00252,JACKSON LAKE,39.4644,-120.5638,Conventional storage dam,-99999,1.6405284,NID2019,1.16,HydroLAKES,6.08076,6.08076,NID2019,NID2019,27.1836720655164,19.22128236,13.5918360327582,9.61064118,-99999,-99999,-99999,-99999,-99999,-99999,-99999,-99999,-99999,-99999,-99999,-99999,-99999,-99999,-99999,-99999,NA,NA,-99999,-99999,-99999,-99999,-99999,-99999,-99999,-99999,-99999,-99999,-99999,-99999
"124",CA00253,Scotts Flat,39.2719,-120.931,Conventional storage dam,1,60.44052,NID2019,60.4,GRanDv1.3,37.338,37.1,NID2019,GRanDv1.3,6149.584169946,6106.289,3074.792084973,3053.1445,6149.584169946,6106.289,3074.792084973,3053.1445,-99999,-99999,-99999,-99999,-99999,-99999,-99999,-99999,-99999,-99999,-99999,-99999,NA,NA,-99999,-99999,-99999,-99999,-99999,-99999,-99999,-99999,-99999,-99999,-99999,-99999
"125",CA00254,JACKSON MEADOWS,39.5085,-120.556,Conventional storage dam,-99999,65.497788,NID2019,64.8,GRanDv1.3,43.7388,41.3,NID2019,GRanDv1.3,7806.56542063524,7292.754,3903.28271031762,3646.377,-99999,-99999,-99999,-99999,-99999,-99999,-99999,-99999,-99999,-99999,-99999,-99999,-99999,-99999,-99999,-99999,NA,NA,-99999,-99999,-99999,-99999,-99999,-99999,-99999,-99999,-99999,-99999,-99999,-99999
"126",CA00255,ROLLINS,39.1356,-120.953,Conventional storage dam,12.1,81.4,GRanDv1.3,81.39487824,NID2019,48.64608,48.3,NID2019,GRanDv1.3,10790.4302352,10712.9903867532,5395.2151176,5356.4951933766,891.771093818182,885.37110634324,445.885546909091,442.68555317162,-99999,-99999,-99999,-99999,-99999,-99999,-99999,-99999,-99999,-99999,-99999,-99999,NA,NA,-99999,-99999,-99999,-99999,-99999,-99999,-99999,-99999,-99999,-99999,-99999,-99999
"127",CA00256,FAUCHERIE LAKE MAIN,39.429,-120.5692,Conventional storage dam,-99999,6.78414,NID2019,3.69,HydroLAKES,13.8684,13.8684,NID2019,NID2019,256.3820805546,139.4502291,128.1910402773,69.72511455,-99999,-99999,-99999,-99999,-99999,-99999,-99999,-99999,-99999,-99999,-99999,-99999,-99999,-99999,-99999,-99999,NA,NA,-99999,-99999,-99999,-99999,-99999,-99999,-99999,-99999,-99999,-99999,-99999,-99999
"128",CA00257,DUTCH FLAT AFTERBAY,39.2135,-120.8448,Conventional storage dam,-99999,2.343612,NID2019,2.343612,NID2019,35.2044,35.2044,NID2019,NID2019,224.82736294788,224.82736294788,112.41368147394,112.41368147394,-99999,-99999,-99999,-99999,-99999,-99999,-99999,-99999,-99999,-99999,-99999,-99999,-99999,-99999,-99999,-99999,NA,NA,-99999,-99999,-99999,-99999,-99999,-99999,-99999,-99999,-99999,-99999,-99999,-99999
"129",CA00258,DUTCH FLAT FOREBAY,39.2242,-120.8355,Conventional storage dam,27.3,0.19982376,NID2019,0.19982376,NID2019,22.4028,22.4028,NID2019,NID2019,12.1987669656888,12.1987669656888,6.0993834828444,6.0993834828444,0.446841280794462,0.446841280794462,0.223420640397231,0.223420640397231,-99999,-99999,-99999,-99999,-99999,-99999,-99999,-99999,-99999,-99999,-99999,-99999,NA,NA,-99999,-99999,-99999,-99999,-99999,-99999,-99999,-99999,-99999,-99999,-99999,-99999
"130",CA00263,BEARDSLEY,38.2035,-120.0753,Conventional storage dam,10,120.6,GRanDv1.3,120.2643,NID2019,60.9,60.59424,GRanDv1.3,NID2019,20013.8715,19857.9575120472,10006.93575,9928.9787560236,2001.38715,1985.79575120472,1000.693575,992.89787560236,-99999,-99999,-99999,-99999,-99999,-99999,-99999,-99999,-99999,-99999,-99999,-99999,NA,NA,-99999,-99999,-99999,-99999,-99999,-99999,-99999,-99999,-99999,-99999,-99999,-99999
"131",CA00264,DONNELLS,38.3302,-119.9613,Conventional storage dam,72,80.2,GRanDv1.3,79.55946,NID2019,67.9,67.63512,GRanDv1.3,NID2019,14839.2055,14663.2621260409,7419.60275,7331.63106302046,206.100076388889,203.656418417235,103.050038194444,101.828209208617,-99999,-99999,-99999,-99999,-99999,-99999,-99999,-99999,-99999,-99999,-99999,-99999,NA,NA,-99999,-99999,-99999,-99999,-99999,-99999,-99999,-99999,-99999,-99999,-99999,-99999
"132",CA00265,TULLOCH,37.8761,-120.6049,Run-of-River,29.9,84.4,GRanDv1.3,82.64316,NID2019,43.7388,43.4,NID2019,GRanDv1.3,10059.486612,9773.7933174,5029.743306,4886.8966587,336.437679331104,326.882719645485,168.218839665552,163.441359822742,-99999,-99999,-99999,-99999,-99999,-99999,-99999,-99999,-99999,-99999,-99999,-99999,NA,NA,-99999,-99999,-99999,-99999,-99999,-99999,-99999,-99999,-99999,-99999,-99999,-99999
"133",CA00266,BEARDSLEY AFTERBAY,38.1961,-120.0905,Conventional storage dam,-99999,0.3947136,NID2019,0.3947136,NID2019,7.04088,7.04088,NID2019,NID2019,7.5731322256128,7.5731322256128,3.7865661128064,3.7865661128064,-99999,-99999,-99999,-99999,-99999,-99999,-99999,-99999,-99999,-99999,-99999,-99999,-99999,-99999,-99999,-99999,NA,NA,-99999,-99999,-99999,-99999,-99999,-99999,-99999,-99999,-99999,-99999,-99999,-99999
"134",CA00268,LOST CREEK,39.5763,-121.1357,Conventional storage dam,67.2,6.290748,NID2019,3.05,HydroLAKES,26.02992,26.02992,NID2019,NID2019,446.212393065936,216.3411726,223.106196532968,108.1705863,6.640065373005,3.2193626875,3.3200326865025,1.60968134375,-99999,-99999,-99999,-99999,-99999,-99999,-99999,-99999,-99999,-99999,-99999,-99999,NA,NA,-99999,-99999,-99999,-99999,-99999,-99999,-99999,-99999,-99999,-99999,-99999,-99999
"135",CA00269,LITTLE GRASS VALLEY,39.725,-121.0201,Conventional storage dam,-99999,114.7259748,NID2019,114.7,GRanDv1.3,44.8056,44.8,NID2019,GRanDv1.3,14007.4977219594,14002.576,7003.74886097972,7001.288,-99999,-99999,-99999,-99999,-99999,-99999,-99999,-99999,-99999,-99999,-99999,-99999,-99999,-99999,-99999,-99999,NA,NA,-99999,-99999,-99999,-99999,-99999,-99999,-99999,-99999,-99999,-99999,-99999,-99999
"136",CA00270,SOUTH FORK DIVERSION,39.64858,-121.11828,Conventional storage dam,-99999,0.10731276,NID2019,0.10731276,NID2019,12.8016,12.8016,NID2019,NID2019,3.7435369524336,3.7435369524336,1.8717684762168,1.8717684762168,-99999,-99999,-99999,-99999,-99999,-99999,-99999,-99999,-99999,-99999,-99999,-99999,-99999,-99999,-99999,-99999,NA,NA,-99999,-99999,-99999,-99999,-99999,-99999,-99999,-99999,-99999,-99999,-99999,-99999
"137",CA00271,SLATE CREEK,39.6132,-121.054,Conventional storage dam,-99999,0.123348,NID2019,0.123348,NID2019,14.0208,14.0208,NID2019,NID2019,4.71271756464,4.71271756464,2.35635878232,2.35635878232,-99999,-99999,-99999,-99999,-99999,-99999,-99999,-99999,-99999,-99999,-99999,-99999,-99999,-99999,-99999,-99999,NA,NA,-99999,-99999,-99999,-99999,-99999,-99999,-99999,-99999,-99999,-99999,-99999,-99999
"138",CA00272,SLY CREEK,39.5826,-121.1155,Conventional storage dam,12.1,80.237874,NID2019,80.2,GRanDv1.3,61.66104,58.1,NID2019,GRanDv1.3,13482.0758161739,12697.4645,6741.03790808696,6348.73225,1114.22114183255,1049.37723140496,557.110570916277,524.688615702479,-99999,-99999,-99999,-99999,-99999,-99999,-99999,-99999,-99999,-99999,-99999,-99999,NA,NA,-99999,-99999,-99999,-99999,-99999,-99999,-99999,-99999,-99999,-99999,-99999,-99999
"139",CA00273,FORBESTOWN DIVERSION,39.5515,-121.2095,Conventional storage dam,41.9,0.42431712,NID2019,0.42431712,NID2019,17.28216,17.28216,NID2019,NID2019,19.9827420771283,19.9827420771283,9.99137103856416,9.99137103856416,0.476915085372991,0.476915085372991,0.238457542686495,0.238457542686495,-99999,-99999,-99999,-99999,-99999,-99999,-99999,-99999,-99999,-99999,-99999,-99999,NA,NA,-99999,-99999,-99999,-99999,-99999,-99999,-99999,-99999,-99999,-99999,-99999,-99999
"140",CA00274,PONDEROSA,39.5493,-121.3039,Conventional storage dam,-99999,5.85903,NID2019,2.57,HydroLAKES,34.1376,34.1376,NID2019,NID2019,545.0360313888,239.0741472,272.5180156944,119.5370736,-99999,-99999,-99999,-99999,-99999,-99999,-99999,-99999,-99999,-99999,-99999,-99999,-99999,-99999,-99999,-99999,NA,NA,-99999,-99999,-99999,-99999,-99999,-99999,-99999,-99999,-99999,-99999,-99999,-99999
"141",CA00275,MINER'S RANCH,39.50946,-121.4593,Conventional storage dam,10,1.0052862,NID2019,0.6,HydroLAKES,19.2024,19.2024,NID2019,NID2019,52.603148555748,31.395924,26.301574277874,15.697962,5.2603148555748,3.1395924,2.6301574277874,1.5697962,-99999,-99999,-99999,-99999,-99999,-99999,-99999,-99999,-99999,-99999,-99999,-99999,NA,NA,-99999,-99999,-99999,-99999,-99999,-99999,-99999,-99999,-99999,-99999,-99999,-99999
"142",CA00276,WOODWARD,37.8646,-120.875,Canal/conduit,2.8,60.8599032,NID2019,43.2,GRanDv1.3,14,13.8684,GRanDv1.3,NID2019,2321.80530708,1632.588048,1160.90265354,816.294024,829.2161811,583.06716,414.60809055,291.53358,-99999,-99999,-99999,-99999,-99999,-99999,-99999,-99999,-99999,-99999,-99999,-99999,NA,NA,-99999,-99999,-99999,-99999,-99999,-99999,-99999,-99999,-99999,-99999,-99999,-99999
"143",CA00277,CONCOW,39.7636,-121.5281,Conventional storage dam,-99999,7.8572676,NID2019,6.97,HydroLAKES,20.05584,20.05584,NID2019,NID2019,429.416677467086,380.92558308,214.708338733543,190.46279154,-99999,-99999,-99999,-99999,-99999,-99999,-99999,-99999,-99999,-99999,-99999,-99999,-99999,-99999,-99999,-99999,NA,NA,-99999,-99999,-99999,-99999,-99999,-99999,-99999,-99999,-99999,-99999,-99999,-99999
"144",CA00278,La Grange,37.6721,-120.4444,Conventional storage dam,4.5,0.431718,NID2019,0.431718,NID2019,27.95016,27.95016,NID2019,NID2019,32.881450051548,32.881450051548,16.440725025774,16.440725025774,7.306988900344,7.306988900344,3.653494450172,3.653494450172,-99999,-99999,-99999,-99999,-99999,-99999,-99999,-99999,-99999,-99999,-99999,-99999,NA,NA,-99999,-99999,-99999,-99999,-99999,-99999,-99999,-99999,-99999,-99999,-99999,-99999
"145",CA00279,TURLOCK LAKE,37.6117,-120.5945,Canal/conduit,3.3,78.21003288,NID2019,56.2,GRanDv1.3,7.7,7.68096,GRanDv1.3,NID2019,1641.0420149046,1176.3006192,820.5210074523,588.1503096,497.285459062,356.454733090909,248.642729531,178.227366545455,-99999,-99999,-99999,-99999,-99999,-99999,-99999,-99999,-99999,-99999,-99999,-99999,NA,NA,-99999,-99999,-99999,-99999,-99999,-99999,-99999,-99999,-99999,-99999,-99999,-99999
"146",CA00280,DAWSON LAKE,37.6405,-120.4785,Canal/conduit,4.4,1.1841408,NID2019,0.63,HydroLAKES,4.69392,4.69392,NID2019,NID2019,15.1462644512256,8.05828716,7.5731322256128,4.02914358,3.442332829824,1.8314289,1.721166414912,0.91571445,-99999,-99999,-99999,-99999,-99999,-99999,-99999,-99999,-99999,-99999,-99999,-99999,NA,NA,-99999,-99999,-99999,-99999,-99999,-99999,-99999,-99999,-99999,-99999,-99999,-99999
"147",CA00281,DON PEDRO MAIN,37.7007,-120.4221,Conventional storage dam,170.8,2504,GRanDv1.3,2503.9644,NID2019,124.8156,121.1,NID2019,GRanDv1.3,851666.76504,826301.992089,425833.38252,413150.9960445,4986.33937377049,4837.83367733607,2493.16968688525,2418.91683866803,-99999,-99999,-99999,-99999,-99999,-99999,-99999,-99999,-99999,-99999,-99999,-99999,NA,NA,-99999,-99999,-99999,-99999,-99999,-99999,-99999,-99999,-99999,-99999,-99999,-99999
"148",CA00294,ANDERSON,37.1676,-121.6308,Conventional storage dam,0.754,112.6,GRanDv1.3,109.86976404,NID2019,51.2064,50.4,NID2019,GRanDv1.3,15711.915744,15089.5133932536,7855.957872,7544.7566966268,20838.0845411141,20012.6172324318,10419.042270557,10006.3086162159,-99999,-99999,-99999,-99999,-99999,-99999,-99999,-99999,-99999,-99999,-99999,-99999,NA,NA,-99999,-99999,-99999,-99999,-99999,-99999,-99999,-99999,-99999,-99999,-99999,-99999
"149",CA00307,CPUD MIDDLE FORK,38.3848,-120.4425,Conventional storage dam,0.23,2.035242,NID2019,2.035242,NID2019,23.89632,23.89632,NID2019,NID2019,132.529813948224,132.529813948224,66.264906974112,66.264906974112,576.216582383583,576.216582383583,288.108291191791,288.108291191791,-99999,-99999,-99999,-99999,-99999,-99999,-99999,-99999,-99999,-99999,-99999,-99999,NA,NA,-99999,-99999,-99999,-99999,-99999,-99999,-99999,-99999,-99999,-99999,-99999,-99999
"150",CA00323,COPCO NO 1,41.9794,-122.3334,Conventional storage dam,20,58,GRanDv1.3,57.80950716,NID2019,53.2,37.4904,GRanDv1.3,NID2019,8408.26,5905.89671620519,4204.13,2952.9483581026,420.413,295.29483581026,210.2065,147.64741790513,-99999,-99999,-99999,-99999,-99999,-99999,-99999,-99999,-99999,-99999,-99999,-99999,NA,NA,-99999,-99999,-99999,-99999,-99999,-99999,-99999,-99999,-99999,-99999,-99999,-99999
"151",CA00324,COPCO NO 2,41.9791,-122.339,Conventional storage dam,27,58,GRanDv1.3,0.09004404,NID2019,53.2,8.2296,GRanDv1.3,NID2019,8408.26,2.0192970260664,4204.13,1.0096485130332,311.417037037037,0.0747887787432,155.708518518519,0.0373943893716,-99999,-99999,-99999,-99999,-99999,-99999,-99999,-99999,-99999,-99999,-99999,-99999,NA,NA,-99999,-99999,-99999,-99999,-99999,-99999,-99999,-99999,-99999,-99999,-99999,-99999
"152",CA00325,IRON GATE,41.9342,-122.4349,Conventional storage dam,18,71.5,GRanDv1.3,23.43612,NID2019,40.32504,37.1,NID2019,GRanDv1.3,7856.829981,2369.3331417,3928.4149905,1184.66657085,436.4905545,131.629618983333,218.24527725,65.8148094916667,-99999,-99999,-99999,-99999,-99999,-99999,-99999,-99999,-99999,-99999,-99999,-99999,NA,NA,-99999,-99999,-99999,-99999,-99999,-99999,-99999,-99999,-99999,-99999,-99999,-99999
"153",CA00326,BUTT VALLEY,40.1155,-121.14302,Conventional storage dam,191.7,61.427304,NID2019,61.4,GRanDv1.3,22.4,17.0688,GRanDv1.3,NID2019,3749.52263616,2855.866272,1874.76131808,1427.933136,19.5593251755869,14.897580970266,9.77966258779343,7.44879048513302,-99999,-99999,-99999,-99999,-99999,-99999,-99999,-99999,-99999,-99999,-99999,-99999,NA,NA,-99999,-99999,-99999,-99999,-99999,-99999,-99999,-99999,-99999,-99999,-99999,-99999
"154",CA00327,LAKE ALMANOR,40.1744,-121.0888,Conventional storage dam,40,1613.4,GRanDv1.3,1406.1672,NID2019,28,27.432,GRanDv1.3,NID2019,123102.42,105114.09176784,61551.21,52557.04588392,3077.5605,2627.852294196,1538.78025,1313.926147098,-99999,-99999,-99999,-99999,-99999,-99999,-99999,-99999,-99999,-99999,-99999,-99999,NA,NA,-99999,-99999,-99999,-99999,-99999,-99999,-99999,-99999,-99999,-99999,-99999,-99999
"155",CA00328,Poe,39.8097,-121.4318,Conventional storage dam,142.8,1.418502,NID2019,1.418502,NID2019,12.192,12.192,NID2019,NID2019,47.1271756464,47.1271756464,23.5635878232,23.5635878232,0.330022238420168,0.330022238420168,0.165011119210084,0.165011119210084,-99999,-99999,-99999,-99999,-99999,-99999,-99999,-99999,-99999,-99999,-99999,-99999,NA,NA,-99999,-99999,-99999,-99999,-99999,-99999,-99999,-99999,-99999,-99999,-99999,-99999
"156",CA00329,Cresta,39.8805,-121.3702,Conventional storage dam,73.8,2.46696,NID2019,2.46696,NID2019,24.10968,24.10968,NID2019,NID2019,162.07650407088,162.07650407088,81.03825203544,81.03825203544,2.19615859174634,2.19615859174634,1.09807929587317,1.09807929587317,-99999,-99999,-99999,-99999,-99999,-99999,-99999,-99999,-99999,-99999,-99999,-99999,NA,NA,-99999,-99999,-99999,-99999,-99999,-99999,-99999,-99999,-99999,-99999,-99999,-99999
"157",CA00330,Rock Creek,39.9866,-121.2834,Conventional storage dam,126,1.9612332,NID2019,1.9612332,NID2019,26.88336,26.88336,NID2019,NID2019,143.674366484779,143.674366484779,71.8371832423896,71.8371832423896,1.1402727498792,1.1402727498792,0.5701363749396,0.5701363749396,-99999,-99999,-99999,-99999,-99999,-99999,-99999,-99999,-99999,-99999,-99999,-99999,NA,NA,-99999,-99999,-99999,-99999,-99999,-99999,-99999,-99999,-99999,-99999,-99999,-99999
"158",CA00331,LOWER BUCKS LAKE,39.9012,-121.2283,Conventional storage dam,22,7.2035232,NID2019,3.12,HydroLAKES,21.12264,21.12264,NID2019,NID2019,414.628989352301,179.58468528,207.31449467615,89.79234264,18.8467722432864,8.16294024,9.4233861216432,4.08147012,-99999,-99999,-99999,-99999,-99999,-99999,-99999,-99999,-99999,-99999,-99999,-99999,NA,NA,-99999,-99999,-99999,-99999,-99999,-99999,-99999,-99999,-99999,-99999,-99999,-99999
"159",CA00332,BUCKS LAKE,39.8953,-121.2038,Conventional storage dam,-99999,127,GRanDv1.3,125.81496,NID2019,26.24328,25.9,NID2019,GRanDv1.3,9082.143126,8879.7053394,4541.071563,4439.8526697,-99999,-99999,-99999,-99999,-99999,-99999,-99999,-99999,-99999,-99999,-99999,-99999,-99999,-99999,-99999,-99999,NA,NA,-99999,-99999,-99999,-99999,-99999,-99999,-99999,-99999,-99999,-99999,-99999,-99999
"160",CA00333,GRIZZLY FOREBAY,39.8914,-121.2919,Conventional storage dam,66,1.3691628,NID2019,1.3691628,NID2019,20.90928,20.90928,NID2019,NID2019,78.0118677558864,78.0118677558864,39.0059338779432,39.0059338779432,1.18199799630131,1.18199799630131,0.590998998150654,0.590998998150654,-99999,-99999,-99999,-99999,-99999,-99999,-99999,-99999,-99999,-99999,-99999,-99999,NA,NA,-99999,-99999,-99999,-99999,-99999,-99999,-99999,-99999,-99999,-99999,-99999,-99999
"161",CA00334,THREE LAKES,39.9681,-121.2235,Conventional storage dam,-99999,2.36,HydroLAKES,0.63277524,NID2019,7.04088,7.04088,NID2019,NID2019,45.27989928,12.1406775991855,22.63994964,6.07033879959276,-99999,-99999,-99999,-99999,-99999,-99999,-99999,-99999,-99999,-99999,-99999,-99999,-99999,-99999,-99999,-99999,NA,NA,-99999,-99999,-99999,-99999,-99999,-99999,-99999,-99999,-99999,-99999,-99999,-99999
"162",CA00335,BALCH DIVERSION,36.9198,-119.0234,Conventional storage dam,128.2,1.5541848,NID2019,0.78,HydroLAKES,28.8036,28.8036,NID2019,NID2019,121.987669656888,61.2220518,60.993834828444,30.6110259,0.951541884999127,0.477551106084243,0.475770942499563,0.238775553042122,-99999,-99999,-99999,-99999,-99999,-99999,-99999,-99999,-99999,-99999,-99999,-99999,NA,NA,-99999,-99999,-99999,-99999,-99999,-99999,-99999,-99999,-99999,-99999,-99999,-99999
"163",CA00336,BALCH AFTERBAY,36.909,-119.09249,Conventional storage dam,-99999,0.39101316,NID2019,0.39101316,NID2019,35.2044,35.2044,NID2019,NID2019,37.5106705549884,37.5106705549884,18.7553352774942,18.7553352774942,-99999,-99999,-99999,-99999,-99999,-99999,-99999,-99999,-99999,-99999,-99999,-99999,-99999,-99999,-99999,-99999,NA,NA,-99999,-99999,-99999,-99999,-99999,-99999,-99999,-99999,-99999,-99999,-99999,-99999
"164",CA00337,CRANE VALLEY,37.2923,-119.5292,Conventional storage dam,0.99,56,GRanDv1.3,55.999992,NID2019,30.9372,30.8,NID2019,GRanDv1.3,4721.01672,4700.07932856,2360.50836,2350.03966428,4768.70375757576,4747.55487733333,2384.35187878788,2373.77743866667,-99999,-99999,-99999,-99999,-99999,-99999,-99999,-99999,-99999,-99999,-99999,-99999,NA,NA,-99999,-99999,-99999,-99999,-99999,-99999,-99999,-99999,-99999,-99999,-99999,-99999
"165",CA00338,#1 Forebay,37.159,-119.4963,Conventional storage dam,12.8,0.08511012,NID2019,0.08511012,NID2019,3.2004,3.2004,NID2019,NID2019,0.7422530164308,0.7422530164308,0.3711265082154,0.3711265082154,0.0579885169086562,0.0579885169086562,0.0289942584543281,0.0289942584543281,-99999,-99999,-99999,-99999,-99999,-99999,-99999,-99999,-99999,-99999,-99999,-99999,NA,NA,-99999,-99999,-99999,-99999,-99999,-99999,-99999,-99999,-99999,-99999,-99999,-99999
"166",CA00339,#3 Forebay,37.2535,-119.5325,Conventional storage dam,4,0.02343612,NID2019,0.02343612,NID2019,2.1336,2.1336,NID2019,NID2019,0.1362590078472,0.1362590078472,0.0681295039236,0.0681295039236,0.0340647519618,0.0340647519618,0.0170323759809,0.0170323759809,-99999,-99999,-99999,-99999,-99999,-99999,-99999,-99999,-99999,-99999,-99999,-99999,NA,NA,-99999,-99999,-99999,-99999,-99999,-99999,-99999,-99999,-99999,-99999,-99999,-99999
"167",CA00340,KERCKHOFF,37.1284,-119.5274,Conventional storage dam,162.1,5.24229,NID2019,5.24229,NID2019,24.32304,24.32304,NID2019,NID2019,347.46047001036,347.46047001036,173.73023500518,173.73023500518,2.14349457131622,2.14349457131622,1.07174728565811,1.07174728565811,-99999,-99999,-99999,-99999,-99999,-99999,-99999,-99999,-99999,-99999,-99999,-99999,NA,NA,-99999,-99999,-99999,-99999,-99999,-99999,-99999,-99999,-99999,-99999,-99999,-99999
"168",CA00341,MERCED FALLS,37.5222,-120.3295,Conventional storage dam,3.4,0.74378844,NID2019,0.74378844,NID2019,8.8392,8.8392,NID2019,NID2019,17.9154982723608,17.9154982723608,8.9577491361804,8.9577491361804,5.26926419775318,5.26926419775318,2.63463209887659,2.63463209887659,-99999,-99999,-99999,-99999,-99999,-99999,-99999,-99999,-99999,-99999,-99999,-99999,NA,NA,-99999,-99999,-99999,-99999,-99999,-99999,-99999,-99999,-99999,-99999,-99999,-99999
"169",CA00342,MANZANITA DIVERSION,37.244,-119.5145,Conventional storage dam,-99999,0.20229072,NID2019,0.20229072,NID2019,6.4008,6.4008,NID2019,NID2019,3.5283911505696,3.5283911505696,1.7641955752848,1.7641955752848,-99999,-99999,-99999,-99999,-99999,-99999,-99999,-99999,-99999,-99999,-99999,-99999,-99999,-99999,-99999,-99999,NA,NA,-99999,-99999,-99999,-99999,-99999,-99999,-99999,-99999,-99999,-99999,-99999,-99999
"170",CA00343,DE SABLA FOREBAY,39.8722,-121.6117,Run-of-River,18.4,0.2220264,NID2019,0.2220264,NID2019,11.09472,11.09472,NID2019,NID2019,6.7125490181568,6.7125490181568,3.3562745090784,3.3562745090784,0.364812446638957,0.364812446638957,0.182406223319478,0.182406223319478,-99999,-99999,-99999,-99999,-99999,-99999,-99999,-99999,-99999,-99999,-99999,-99999,NA,NA,-99999,-99999,-99999,-99999,-99999,-99999,-99999,-99999,-99999,-99999,-99999,-99999
"171",CA00344,KUNKLE,39.71309,-121.57208,Conventional storage dam,2,0.1911894,NID2019,0.1911894,NID2019,11.52144,11.52144,NID2019,NID2019,6.0025678720056,6.0025678720056,3.0012839360028,3.0012839360028,3.0012839360028,3.0012839360028,1.5006419680014,1.5006419680014,-99999,-99999,-99999,-99999,-99999,-99999,-99999,-99999,-99999,-99999,-99999,-99999,NA,NA,-99999,-99999,-99999,-99999,-99999,-99999,-99999,-99999,-99999,-99999,-99999,-99999
"172",CA00345,PHILBROOK MAIN,40.0293,-121.4768,Conventional storage dam,-99999,6.17850132,NID2019,3.39,HydroLAKES,18.56232,18.56232,NID2019,NID2019,312.522943245665,171.47407158,156.261471622833,85.73703579,-99999,-99999,-99999,-99999,-99999,-99999,-99999,-99999,-99999,-99999,-99999,-99999,-99999,-99999,-99999,-99999,NA,NA,-99999,-99999,-99999,-99999,-99999,-99999,-99999,-99999,-99999,-99999,-99999,-99999
"173",CA00346,ROUND VALLEY,40.073,-121.4532,Conventional storage dam,-99999,2.62,HydroLAKES,1.47524208,NID2019,6.272784,6.272784,NID2019,NID2019,44.784541368,25.2168091448757,22.392270684,12.6084045724379,-99999,-99999,-99999,-99999,-99999,-99999,-99999,-99999,-99999,-99999,-99999,-99999,-99999,-99999,-99999,-99999,NA,NA,-99999,-99999,-99999,-99999,-99999,-99999,-99999,-99999,-99999,-99999,-99999,-99999
"174",CA00347,BLUE LAKE,39.3583,-120.6363,Conventional storage dam,-99999,1.480176,NID2019,1.15,HydroLAKES,5.334,5.334,NID2019,NID2019,21.5145801864,16.7154225,10.7572900932,8.35771125,-99999,-99999,-99999,-99999,-99999,-99999,-99999,-99999,-99999,-99999,-99999,-99999,-99999,-99999,-99999,-99999,NA,NA,-99999,-99999,-99999,-99999,-99999,-99999,-99999,-99999,-99999,-99999,-99999,-99999
"175",CA00348,HALSEY AFTERBAY,38.9559,-121.0428,Conventional storage dam,-99999,0.0740088,NID2019,0.0740088,NID2019,8.577072,8.577072,NID2019,NID2019,1.72977224698656,1.72977224698656,0.86488612349328,0.86488612349328,-99999,-99999,-99999,-99999,-99999,-99999,-99999,-99999,-99999,-99999,-99999,-99999,-99999,-99999,-99999,-99999,NA,NA,-99999,-99999,-99999,-99999,-99999,-99999,-99999,-99999,-99999,-99999,-99999,-99999
"176",CA00349,CULBERTSON LAKE,39.4212,-120.6234,Conventional storage dam,-99999,1.171806,NID2019,1.171806,NID2019,4.2672,4.2672,NID2019,NID2019,13.62590078472,13.62590078472,6.81295039236,6.81295039236,-99999,-99999,-99999,-99999,-99999,-99999,-99999,-99999,-99999,-99999,-99999,-99999,-99999,-99999,-99999,-99999,NA,NA,-99999,-99999,-99999,-99999,-99999,-99999,-99999,-99999,-99999,-99999,-99999,-99999
"177",CA00350,DRUM FOREBAY,39.2508,-120.7506,Conventional storage dam,102.3,0.6414096,NID2019,0.6414096,NID2019,13.932408,13.932408,NID2019,NID2019,24.3516361603133,24.3516361603133,12.1758180801566,12.1758180801566,0.238041409191723,0.238041409191723,0.119020704595862,0.119020704595862,-99999,-99999,-99999,-99999,-99999,-99999,-99999,-99999,-99999,-99999,-99999,-99999,NA,NA,-99999,-99999,-99999,-99999,-99999,-99999,-99999,-99999,-99999,-99999,-99999,-99999
"178",CA00351,FULLER LAKE,39.3449,-120.6507,Conventional storage dam,-99999,1.48,HydroLAKES,1.356828,NID2019,8.32104,8.32104,NID2019,NID2019,33.55875432,30.765849666552,16.77937716,15.382924833276,-99999,-99999,-99999,-99999,-99999,-99999,-99999,-99999,-99999,-99999,-99999,-99999,-99999,-99999,-99999,-99999,NA,NA,-99999,-99999,-99999,-99999,-99999,-99999,-99999,-99999,-99999,-99999,-99999,-99999
"179",CA00352,HALSEY FOREBAY NO. 1,38.97072,-121.03721,Conventional storage dam,13.6,0.30096912,NID2019,0.30096912,NID2019,8.96112,8.96112,NID2019,NID2019,7.34938059167424,7.34938059167424,3.67469029583712,3.67469029583712,0.540395631740753,0.540395631740753,0.270197815870376,0.270197815870376,-99999,-99999,-99999,-99999,-99999,-99999,-99999,-99999,-99999,-99999,-99999,-99999,NA,NA,-99999,-99999,-99999,-99999,-99999,-99999,-99999,-99999,-99999,-99999,-99999,-99999
"180",CA00353,KELLY LAKE,39.3107,-120.581,Conventional storage dam,-99999,0.4440528,NID2019,0.4440528,NID2019,5.01396,5.01396,NID2019,NID2019,6.0671116125648,6.0671116125648,3.0335558062824,3.0335558062824,-99999,-99999,-99999,-99999,-99999,-99999,-99999,-99999,-99999,-99999,-99999,-99999,-99999,-99999,-99999,-99999,NA,NA,-99999,-99999,-99999,-99999,-99999,-99999,-99999,-99999,-99999,-99999,-99999,-99999
"181",CA00354,KIDD LAKE MAIN,39.3107,-120.4327,Conventional storage dam,-99999,1.8748896,NID2019,1.24,HydroLAKES,9.0678,9.0678,NID2019,NID2019,46.328062668048,30.6400962,23.164031334024,15.3200481,-99999,-99999,-99999,-99999,-99999,-99999,-99999,-99999,-99999,-99999,-99999,-99999,-99999,-99999,-99999,-99999,NA,NA,-99999,-99999,-99999,-99999,-99999,-99999,-99999,-99999,-99999,-99999,-99999,-99999
"182",CA00357,LAKE FORDYCE,39.38,-120.4963,Conventional storage dam,-99999,60.3,GRanDv1.3,57.603516,NID2019,30.9372,30.8,NID2019,GRanDv1.3,5083.523361,4834.66309788,2541.7616805,2417.33154894,-99999,-99999,-99999,-99999,-99999,-99999,-99999,-99999,-99999,-99999,-99999,-99999,-99999,-99999,-99999,-99999,NA,NA,-99999,-99999,-99999,-99999,-99999,-99999,-99999,-99999,-99999,-99999,-99999,-99999
"183",CA00358,LAKE SPAULDING NO. 1,39.3271,-120.6431,Conventional storage dam,10.7,92.2,GRanDv1.3,92.140956,NID2019,58.99404,58.8,NID2019,GRanDv1.3,14821.9575798,14763.74537988,7410.9787899,7381.87268994,1385.22968035514,1379.78928783925,692.61484017757,689.894643919626,-99999,-99999,-99999,-99999,-99999,-99999,-99999,-99999,-99999,-99999,-99999,-99999,NA,NA,-99999,-99999,-99999,-99999,-99999,-99999,-99999,-99999,-99999,-99999,-99999,-99999
"184",CA00358S002,LAKE SPAULDING NO. 3 AUXILIARY,39.3338,-120.6408,Conventional storage dam,6.6,92.2,HydroLAKES,92.140956,NID2019,20.16252,20.16252,NID2019,NID2019,5065.7323374,5062.48829076085,2532.8661687,2531.24414538043,767.535202636364,767.043680418311,383.767601318182,383.521840209155,-99999,-99999,-99999,-99999,-99999,-99999,-99999,-99999,-99999,-99999,-99999,-99999,NA,NA,-99999,-99999,-99999,-99999,-99999,-99999,-99999,-99999,-99999,-99999,-99999,-99999
"185",CA00359,LAKE STERLING,39.357,-120.4926,Conventional storage dam,-99999,2.15,HydroLAKES,2.1339204,NID2019,7.14756,7.14756,NID2019,NID2019,41.87576715,41.5625831567604,20.937883575,20.7812915783802,-99999,-99999,-99999,-99999,-99999,-99999,-99999,-99999,-99999,-99999,-99999,-99999,-99999,-99999,-99999,-99999,NA,NA,-99999,-99999,-99999,-99999,-99999,-99999,-99999,-99999,-99999,-99999,-99999,-99999
"186",CA00361,LAKE VALLEY MAIN,39.3002,-120.5979,Conventional storage dam,-99999,10,GRanDv1.3,9.497796,NID2019,16.1,16.002,GRanDv1.3,NID2019,438.725,414.1556685882,219.3625,207.0778342941,-99999,-99999,-99999,-99999,-99999,-99999,-99999,-99999,-99999,-99999,-99999,-99999,-99999,-99999,-99999,-99999,NA,NA,-99999,-99999,-99999,-99999,-99999,-99999,-99999,-99999,-99999,-99999,-99999,-99999
"187",CA00362,Lake Van Norden,39.322,-120.377,Conventional storage dam,-99999,12.9,HydroLAKES,0.370044,NID2019,3.048,3.048,NID2019,NID2019,107.14482,3.0735114552,53.57241,1.5367557276,-99999,-99999,-99999,-99999,-99999,-99999,-99999,-99999,-99999,-99999,-99999,-99999,-99999,-99999,-99999,-99999,NA,NA,-99999,-99999,-99999,-99999,-99999,-99999,-99999,-99999,-99999,-99999,-99999,-99999
"188",CA00363,LOWER FEELEY,39.3991,-120.6435,Conventional storage dam,-99999,0.185022,NID2019,0.185022,NID2019,4.05384,4.05384,NID2019,NID2019,2.043885117708,2.043885117708,1.021942558854,1.021942558854,-99999,-99999,-99999,-99999,-99999,-99999,-99999,-99999,-99999,-99999,-99999,-99999,-99999,-99999,-99999,-99999,NA,NA,-99999,-99999,-99999,-99999,-99999,-99999,-99999,-99999,-99999,-99999,-99999,-99999
"189",CA00364,LOWER LINDSEY,39.4119,-120.6445,Conventional storage dam,-99999,0.370044,NID2019,0.370044,NID2019,3.41376,3.41376,NID2019,NID2019,3.442332829824,3.442332829824,1.721166414912,1.721166414912,-99999,-99999,-99999,-99999,-99999,-99999,-99999,-99999,-99999,-99999,-99999,-99999,-99999,-99999,-99999,-99999,NA,NA,-99999,-99999,-99999,-99999,-99999,-99999,-99999,-99999,-99999,-99999,-99999,-99999
"190",CA00365,Lower Peak,39.3033,-120.4398,Conventional storage dam,-99999,0.5920704,NID2019,0.5920704,NID2019,6.61416,6.61416,NID2019,NID2019,10.6712317724544,10.6712317724544,5.3356158862272,5.3356158862272,-99999,-99999,-99999,-99999,-99999,-99999,-99999,-99999,-99999,-99999,-99999,-99999,-99999,-99999,-99999,-99999,NA,NA,-99999,-99999,-99999,-99999,-99999,-99999,-99999,-99999,-99999,-99999,-99999,-99999
"191",CA00366,MEADOW LAKE,39.40333,-120.49769,Conventional storage dam,-99999,6.044052,NID2019,5.72,HydroLAKES,8.10768,8.10768,NID2019,NID2019,133.533827690256,126.37440816,66.766913845128,63.18720408,-99999,-99999,-99999,-99999,-99999,-99999,-99999,-99999,-99999,-99999,-99999,-99999,-99999,-99999,-99999,-99999,NA,NA,-99999,-99999,-99999,-99999,-99999,-99999,-99999,-99999,-99999,-99999,-99999,-99999
"192",CA00367,MIDDLE LINDSEY,39.4156,-120.6332,Conventional storage dam,-99999,0.1480176,NID2019,0.1480176,NID2019,1.81356,1.81356,NID2019,NID2019,0.7314957263376,0.7314957263376,0.3657478631688,0.3657478631688,-99999,-99999,-99999,-99999,-99999,-99999,-99999,-99999,-99999,-99999,-99999,-99999,-99999,-99999,-99999,-99999,NA,NA,-99999,-99999,-99999,-99999,-99999,-99999,-99999,-99999,-99999,-99999,-99999,-99999
"193",CA00368,ROCK CREEK,38.9472,-121.0903,Conventional storage dam,-99999,0.5118942,NID2019,0.49,HydroLAKES,7.68096,7.68096,NID2019,NID2019,10.7142609328272,10.25600184,5.3571304664136,5.12800092,-99999,-99999,-99999,-99999,-99999,-99999,-99999,-99999,-99999,-99999,-99999,-99999,-99999,-99999,-99999,-99999,NA,NA,-99999,-99999,-99999,-99999,-99999,-99999,-99999,-99999,-99999,-99999,-99999,-99999
"194",CA00369,RUCKER LAKE,39.35643,-120.65807,Conventional storage dam,-99999,0.9,HydroLAKES,0.8140968,NID2019,4.69392,4.69392,NID2019,NID2019,11.5118388,10.4130568102176,5.7559194,5.2065284051088,-99999,-99999,-99999,-99999,-99999,-99999,-99999,-99999,-99999,-99999,-99999,-99999,-99999,-99999,-99999,-99999,NA,NA,-99999,-99999,-99999,-99999,-99999,-99999,-99999,-99999,-99999,-99999,-99999,-99999
"195",CA00370,UPPER FEELEY,39.4002,-120.638,Conventional storage dam,-99999,1.61,HydroLAKES,0.9004404,NID2019,4.90728,4.90728,NID2019,NID2019,21.52946418,12.0409933776552,10.76473209,6.0204966888276,-99999,-99999,-99999,-99999,-99999,-99999,-99999,-99999,-99999,-99999,-99999,-99999,-99999,-99999,-99999,-99999,NA,NA,-99999,-99999,-99999,-99999,-99999,-99999,-99999,-99999,-99999,-99999,-99999,-99999
"196",CA00371,Upper Peak Lake,39.3005,-120.4354,Conventional storage dam,-99999,2.1339204,NID2019,1.25,HydroLAKES,8.32104,8.32104,NID2019,NID2019,48.3862908392136,28.3435425,24.1931454196068,14.17177125,-99999,-99999,-99999,-99999,-99999,-99999,-99999,-99999,-99999,-99999,-99999,-99999,-99999,-99999,-99999,-99999,NA,NA,-99999,-99999,-99999,-99999,-99999,-99999,-99999,-99999,-99999,-99999,-99999,-99999
"197",CA00372,UPPER ROCK LAKE MAIN,39.4302,-120.6187,Conventional storage dam,12.7,0.2343612,NID2019,0.2343612,NID2019,3.62712,3.62712,NID2019,NID2019,2.3164031334024,2.3164031334024,1.1582015667012,1.1582015667012,0.182393947512,0.182393947512,0.091196973756,0.091196973756,-99999,-99999,-99999,-99999,-99999,-99999,-99999,-99999,-99999,-99999,-99999,-99999,NA,NA,-99999,-99999,-99999,-99999,-99999,-99999,-99999,-99999,-99999,-99999,-99999,-99999
"198",CA00373,WHITE ROCK LAKE,39.4176,-120.3883,Conventional storage dam,-99999,1.81,HydroLAKES,1.048458,NID2019,2.88036,2.88036,NID2019,NID2019,14.20665561,8.229326921298,7.103327805,4.114663460649,-99999,-99999,-99999,-99999,-99999,-99999,-99999,-99999,-99999,-99999,-99999,-99999,-99999,-99999,-99999,-99999,NA,NA,-99999,-99999,-99999,-99999,-99999,-99999,-99999,-99999,-99999,-99999,-99999,-99999
"199",CA00374,ECHO LAKE,38.8349,-120.0443,Conventional storage dam,-99999,10.93,HydroLAKES,2.2942728,NID2019,2.98704,2.98704,NID2019,NID2019,88.96674612,18.6746556017952,44.48337306,9.3373278008976,-99999,-99999,-99999,-99999,-99999,-99999,-99999,-99999,-99999,-99999,-99999,-99999,-99999,-99999,-99999,-99999,NA,NA,-99999,-99999,-99999,-99999,-99999,-99999,-99999,-99999,-99999,-99999,-99999,-99999
"200",CA00375,EL DORADO FOREBAY,38.7699,-120.586,Conventional storage dam,20,0.3823788,NID2019,0.3823788,NID2019,19.41576,19.41576,NID2019,NID2019,20.2308769019448,20.2308769019448,10.1154384509724,10.1154384509724,1.01154384509724,1.01154384509724,0.50577192254862,0.50577192254862,-99999,-99999,-99999,-99999,-99999,-99999,-99999,-99999,-99999,-99999,-99999,-99999,NA,NA,-99999,-99999,-99999,-99999,-99999,-99999,-99999,-99999,-99999,-99999,-99999,-99999
"201",CA00376,Medley Lakes,38.8599,-120.1368,Conventional storage dam,-99999,36.47,HydroLAKES,6.24510924,NID2019,6.18744,6.18744,NID2019,NID2019,614.91242778,105.297375500952,307.45621389,52.6486877504759,-99999,-99999,-99999,-99999,-99999,-99999,-99999,-99999,-99999,-99999,-99999,-99999,-99999,-99999,-99999,-99999,NA,NA,-99999,-99999,-99999,-99999,-99999,-99999,-99999,-99999,-99999,-99999,-99999,-99999
"202",CA00377,Silver Lake,38.6683,-120.1227,Conventional storage dam,-99999,22.59,HydroLAKES,10.5955932,NID2019,6.82752,6.82752,NID2019,NID2019,420.28676928,197.130926721254,210.14338464,98.5654633606272,-99999,-99999,-99999,-99999,-99999,-99999,-99999,-99999,-99999,-99999,-99999,-99999,-99999,-99999,-99999,-99999,NA,NA,-99999,-99999,-99999,-99999,-99999,-99999,-99999,-99999,-99999,-99999,-99999,-99999
"203",CA00378,CAPLES LAKE MAIN,38.7066,-120.0493,Conventional storage dam,-99999,26.6,GRanDv1.3,15.541848,NID2019,18.34896,15.4,NID2019,GRanDv1.3,1330.0243656,652.21365132,665.0121828,326.10682566,-99999,-99999,-99999,-99999,-99999,-99999,-99999,-99999,-99999,-99999,-99999,-99999,-99999,-99999,-99999,-99999,NA,NA,-99999,-99999,-99999,-99999,-99999,-99999,-99999,-99999,-99999,-99999,-99999,-99999
"204",CA00379,UPPER BEAR,38.5577,-120.2163,Conventional storage dam,-99999,8.3383248,NID2019,5.99,HydroLAKES,16.42872,16.42872,NID2019,NID2019,373.292309287498,268.16188938,186.646154643749,134.08094469,-99999,-99999,-99999,-99999,-99999,-99999,-99999,-99999,-99999,-99999,-99999,-99999,-99999,-99999,-99999,-99999,NA,NA,-99999,-99999,-99999,-99999,-99999,-99999,-99999,-99999,-99999,-99999,-99999,-99999
"205",CA00380,Lower Blue Lake,38.60916,-119.92542,Conventional storage dam,-99999,6.2784132,NID2019,1.92,HydroLAKES,8.5344,8.5344,NID2019,NID2019,146.012284198368,44.6519808,73.006142099184,22.3259904,-99999,-99999,-99999,-99999,-99999,-99999,-99999,-99999,-99999,-99999,-99999,-99999,-99999,-99999,-99999,-99999,NA,NA,-99999,-99999,-99999,-99999,-99999,-99999,-99999,-99999,-99999,-99999,-99999,-99999
"206",CA00381,MEADOW LAKE,38.599,-119.9754,Conventional storage dam,-99999,6.9814968,NID2019,2.15,HydroLAKES,15.68196,15.68196,NID2019,NID2019,298.342683444809,91.87668315,149.171341722404,45.938341575,-99999,-99999,-99999,-99999,-99999,-99999,-99999,-99999,-99999,-99999,-99999,-99999,-99999,-99999,-99999,-99999,NA,NA,-99999,-99999,-99999,-99999,-99999,-99999,-99999,-99999,-99999,-99999,-99999,-99999
"207",CA00382,SALT SPRINGS,38.4983,-120.2155,Conventional storage dam,42,175.15416,NID2019,175,GRanDv1.3,70.7,69.98208,GRanDv1.3,NID2019,33744.7625802,33372.7044,16872.3812901,16686.3522,803.4467281,794.5882,401.72336405,397.2941,-99999,-99999,-99999,-99999,-99999,-99999,-99999,-99999,-99999,-99999,-99999,-99999,NA,NA,-99999,-99999,-99999,-99999,-99999,-99999,-99999,-99999,-99999,-99999,-99999,-99999
"208",CA00383,TABEAUD,38.3478,-120.6664,Conventional storage dam,102.5,1.2211452,NID2019,1.2211452,NID2019,28.931616,28.931616,NID2019,NID2019,96.2734434181027,96.2734434181027,48.1367217090514,48.1367217090514,0.939253106518075,0.939253106518075,0.469626553259038,0.469626553259038,-99999,-99999,-99999,-99999,-99999,-99999,-99999,-99999,-99999,-99999,-99999,-99999,NA,NA,-99999,-99999,-99999,-99999,-99999,-99999,-99999,-99999,-99999,-99999,-99999,-99999
"209",CA00384,TWIN LAKE,38.6088,-119.9444,Conventional storage dam,-99999,1.4925108,NID2019,1.44,HydroLAKES,4.69392,4.69392,NID2019,NID2019,19.0906041520656,18.41894208,9.5453020760328,9.20947104,-99999,-99999,-99999,-99999,-99999,-99999,-99999,-99999,-99999,-99999,-99999,-99999,-99999,-99999,-99999,-99999,NA,NA,-99999,-99999,-99999,-99999,-99999,-99999,-99999,-99999,-99999,-99999,-99999,-99999
"210",CA00385,Upper Blue Lake,38.62877,-119.94013,Conventional storage dam,-99999,8.33709132,NID2019,4.23,HydroLAKES,5.54736,5.54736,NID2019,NID2019,126.028107815894,63.94303188,63.014053907947,31.97151594,-99999,-99999,-99999,-99999,-99999,-99999,-99999,-99999,-99999,-99999,-99999,-99999,-99999,-99999,-99999,-99999,NA,NA,-99999,-99999,-99999,-99999,-99999,-99999,-99999,-99999,-99999,-99999,-99999,-99999
"211",CA00387,LYONS,38.0936,-120.1682,Conventional storage dam,1.6,7.68211344,NID2019,4.67,HydroLAKES,28.16352,28.16352,NID2019,NID2019,589.568343763956,358.40191464,294.784171881978,179.20095732,368.480214852473,224.00119665,184.240107426236,112.000598325,-99999,-99999,-99999,-99999,-99999,-99999,-99999,-99999,-99999,-99999,-99999,-99999,NA,NA,-99999,-99999,-99999,-99999,-99999,-99999,-99999,-99999,-99999,-99999,-99999,-99999
"212",CA00388,STRAWBERRY,38.1995,-119.9893,Conventional storage dam,6,22.6,GRanDv1.3,22.572684,NID2019,30.8,30.51048,GRanDv1.3,NID2019,1896.818,1876.71682965967,948.409,938.358414829836,316.136333333333,312.786138276612,158.068166666667,156.393069138306,-99999,-99999,-99999,-99999,-99999,-99999,-99999,-99999,-99999,-99999,-99999,-99999,NA,NA,-99999,-99999,-99999,-99999,-99999,-99999,-99999,-99999,-99999,-99999,-99999,-99999
"213",CA00390,RELIEF,38.2812,-119.7337,Conventional storage dam,-99999,19.242288,NID2019,18.7,GRanDv1.3,30.8,29.8704,GRanDv1.3,NID2019,1615.00523184,1522.120908,807.50261592,761.060454,-99999,-99999,-99999,-99999,-99999,-99999,-99999,-99999,-99999,-99999,-99999,-99999,-99999,-99999,-99999,-99999,NA,NA,-99999,-99999,-99999,-99999,-99999,-99999,-99999,-99999,-99999,-99999,-99999,-99999
"214",CA00391,STANISLAUS FOREBAY WEST,38.1448,-120.3583,Conventional storage dam,81.9,0.3947136,NID2019,0.3947136,NID2019,12.8016,12.8016,NID2019,NID2019,13.769331319296,13.769331319296,6.884665659648,6.884665659648,0.168123703532308,0.168123703532308,0.0840618517661538,0.0840618517661538,-99999,-99999,-99999,-99999,-99999,-99999,-99999,-99999,-99999,-99999,-99999,-99999,NA,NA,-99999,-99999,-99999,-99999,-99999,-99999,-99999,-99999,-99999,-99999,-99999,-99999
"215",CA00392,COLEMAN FOREBAY,40.4133,-122.114,Conventional storage dam,12.1,0.09374448,NID2019,0.09374448,NID2019,4.2672,4.2672,NID2019,NID2019,1.0900720627776,1.0900720627776,0.5450360313888,0.5450360313888,0.0900886002295537,0.0900886002295537,0.0450443001147769,0.0450443001147769,-99999,-99999,-99999,-99999,-99999,-99999,-99999,-99999,-99999,-99999,-99999,-99999,NA,NA,-99999,-99999,-99999,-99999,-99999,-99999,-99999,-99999,-99999,-99999,-99999,-99999
"216",CA00393,MACUMBER,40.5378,-121.7327,Conventional storage dam,-99999,1,HydroLAKES,0.5303964,NID2019,5.76072,5.76072,NID2019,NID2019,15.697962,8.3261425321368,7.848981,4.1630712660684,-99999,-99999,-99999,-99999,-99999,-99999,-99999,-99999,-99999,-99999,-99999,-99999,-99999,-99999,-99999,-99999,NA,NA,-99999,-99999,-99999,-99999,-99999,-99999,-99999,-99999,-99999,-99999,-99999,-99999
"217",CA00394,NORTH BATTLE CREEK,40.6028,-121.6553,Conventional storage dam,-99999,1.62,HydroLAKES,1.3444932,NID2019,10.88136,10.88136,NID2019,NID2019,48.03576372,39.8665170853992,24.01788186,19.9332585426996,-99999,-99999,-99999,-99999,-99999,-99999,-99999,-99999,-99999,-99999,-99999,-99999,-99999,-99999,-99999,-99999,NA,NA,-99999,-99999,-99999,-99999,-99999,-99999,-99999,-99999,-99999,-99999,-99999,-99999
"218",CA00395,PIT NO. 3 DIVERSION,41.02164,-121.67551,Conventional storage dam,80.1,50.57268,NID2019,42.7,GRanDv1.3,28.8036,25.9,NID2019,GRanDv1.3,3969.4400443908,3013.65925,1984.7200221954,1506.829625,49.5560554855281,37.6237109862672,24.778027742764,18.8118554931336,-99999,-99999,-99999,-99999,-99999,-99999,-99999,-99999,-99999,-99999,-99999,-99999,NA,NA,-99999,-99999,-99999,-99999,-99999,-99999,-99999,-99999,-99999,-99999,-99999,-99999
"219",CA00396,PIT #1 DIVERSION,41.01378,-121.46448,Conventional storage dam,-99999,0.061674,NID2019,0.061674,NID2019,3.2004,3.2004,NID2019,NID2019,0.53786450466,0.53786450466,0.26893225233,0.26893225233,-99999,-99999,-99999,-99999,-99999,-99999,-99999,-99999,-99999,-99999,-99999,-99999,-99999,-99999,-99999,-99999,NA,NA,-99999,-99999,-99999,-99999,-99999,-99999,-99999,-99999,-99999,-99999,-99999,-99999
"220",CA00397,PIT NO. 4 DIVERSION,40.9878,-121.7692,Conventional storage dam,103.4,2.4299556,NID2019,2.4299556,NID2019,20.4216,20.4216,NID2019,NID2019,135.224258990616,135.224258990616,67.612129495308,67.612129495308,1.30777813337153,1.30777813337153,0.653889066685764,0.653889066685764,-99999,-99999,-99999,-99999,-99999,-99999,-99999,-99999,-99999,-99999,-99999,-99999,NA,NA,-99999,-99999,-99999,-99999,-99999,-99999,-99999,-99999,-99999,-99999,-99999,-99999
"221",CA00398,SCOTT,39.4083,-122.9583,Conventional storage dam,-99999,99.418488,NID2019,90,GRanDv1.3,29.44368,29.4,NID2019,GRanDv1.3,7976.74574990966,7210.35,3988.37287495483,3605.175,-99999,-99999,-99999,-99999,-99999,-99999,-99999,-99999,-99999,-99999,-99999,-99999,-99999,-99999,-99999,-99999,NA,NA,-99999,-99999,-99999,-99999,-99999,-99999,-99999,-99999,-99999,-99999,-99999,-99999
"222",CA00399,CAPE HORN,39.3861,-123.1162,Conventional storage dam,9.4,0.12581496,NID2019,0.12581496,NID2019,13.44168,13.44168,NID2019,NID2019,4.60842307592688,4.60842307592688,2.30421153796344,2.30421153796344,0.490257774034774,0.490257774034774,0.245128887017387,0.245128887017387,-99999,-99999,-99999,-99999,-99999,-99999,-99999,-99999,-99999,-99999,-99999,-99999,NA,NA,-99999,-99999,-99999,-99999,-99999,-99999,-99999,-99999,-99999,-99999,-99999,-99999
"223",CA00400,Tiger Creek Regulator,38.3445,-120.4522,Conventional storage dam,-99999,0.28863432,NID2019,0.28863432,NID2019,24.5364,24.5364,NID2019,NID2019,19.2985784272008,19.2985784272008,9.6492892136004,9.6492892136004,-99999,-99999,-99999,-99999,-99999,-99999,-99999,-99999,-99999,-99999,-99999,-99999,-99999,-99999,-99999,-99999,NA,NA,-99999,-99999,-99999,-99999,-99999,-99999,-99999,-99999,-99999,-99999,-99999,-99999
"224",CA00401,Tiger Creek Afterbay,38.4413,-120.5051,Conventional storage dam,13.6,3.2193828,NID2019,3.2193828,NID2019,25.6032,25.6032,NID2019,NID2019,224.612217146016,224.612217146016,112.306108573008,112.306108573008,16.5156042019129,16.5156042019129,8.25780210095647,8.25780210095647,-99999,-99999,-99999,-99999,-99999,-99999,-99999,-99999,-99999,-99999,-99999,-99999,NA,NA,-99999,-99999,-99999,-99999,-99999,-99999,-99999,-99999,-99999,-99999,-99999,-99999
"225",CA00402,PIT NO. 5 DIVERSION,40.9927,-121.8691,Conventional storage dam,141.6,0.4070484,NID2019,0.4070484,NID2019,11.5824,11.5824,NID2019,NID2019,12.847277882736,12.847277882736,6.423638941368,6.423638941368,0.0907293635786441,0.0907293635786441,0.045364681789322,0.045364681789322,-99999,-99999,-99999,-99999,-99999,-99999,-99999,-99999,-99999,-99999,-99999,-99999,NA,NA,-99999,-99999,-99999,-99999,-99999,-99999,-99999,-99999,-99999,-99999,-99999,-99999
"226",CA00403,PIT NO. 5 OPEN CONDUIT,40.9993,-121.8907,Conventional storage dam,-99999,1.23348,NID2019,1.23348,NID2019,15.14856,15.14856,NID2019,NID2019,50.91783977448,50.91783977448,25.45891988724,25.45891988724,-99999,-99999,-99999,-99999,-99999,-99999,-99999,-99999,-99999,-99999,-99999,-99999,-99999,-99999,-99999,-99999,NA,NA,-99999,-99999,-99999,-99999,-99999,-99999,-99999,-99999,-99999,-99999,-99999,-99999
"227",CA00404,HAT CREEK NO. 2 DIVERSION,40.94995,-121.54539,Conventional storage dam,-99999,2.63,HydroLAKES,0.77585892,NID2019,4.572,4.572,NID2019,NID2019,32.766381,9.666193526604,16.3831905,4.833096763302,-99999,-99999,-99999,-99999,-99999,-99999,-99999,-99999,-99999,-99999,-99999,-99999,-99999,-99999,-99999,-99999,NA,NA,-99999,-99999,-99999,-99999,-99999,-99999,-99999,-99999,-99999,-99999,-99999,-99999
"228",CA00405,PIT NO. 1 FOREBAY,41.0082,-121.4482,Conventional storage dam,69.2,1.65,HydroLAKES,0.75735672,NID2019,9.92124,9.92124,NID2019,NID2019,44.60837535,20.4754259633969,22.304187675,10.2377129816984,0.644629701589596,0.295887658430591,0.322314850794798,0.147943829215295,-99999,-99999,-99999,-99999,-99999,-99999,-99999,-99999,-99999,-99999,-99999,-99999,NA,NA,-99999,-99999,-99999,-99999,-99999,-99999,-99999,-99999,-99999,-99999,-99999,-99999
"229",CA00407,INDIAN OLE,40.2838,-121.0247,Conventional storage dam,5.3,30.6,GRanDv1.3,30.590304,NID2019,5.6,5.54736,GRanDv1.3,NID2019,466.956,462.420043473024,233.478,231.210021736512,88.1049056603774,87.2490648062309,44.0524528301887,43.6245324031155,-99999,-99999,-99999,-99999,-99999,-99999,-99999,-99999,-99999,-99999,-99999,-99999,NA,NA,-99999,-99999,-99999,-99999,-99999,-99999,-99999,-99999,-99999,-99999,-99999,-99999
"230",CA00408,ELECTRA AFTERBAY,38.3307,-120.6748,Conventional storage dam,-99999,0.00123348,NID2019,0.00123348,NID2019,6.4008,6.4008,NID2019,NID2019,0.0215145801864,0.0215145801864,0.0107572900932,0.0107572900932,-99999,-99999,-99999,-99999,-99999,-99999,-99999,-99999,-99999,-99999,-99999,-99999,-99999,-99999,-99999,-99999,NA,NA,-99999,-99999,-99999,-99999,-99999,-99999,-99999,-99999,-99999,-99999,-99999,-99999
"231",CA00409,LOWER BEAR,38.5375,-120.2557,Conventional storage dam,-99999,66.6,GRanDv1.3,60.563868,NID2019,52.5,38.06952,GRanDv1.3,NID2019,9527.9625,6282.86187168166,4763.98125,3141.43093584083,-99999,-99999,-99999,-99999,-99999,-99999,-99999,-99999,-99999,-99999,-99999,-99999,-99999,-99999,-99999,-99999,NA,NA,-99999,-99999,-99999,-99999,-99999,-99999,-99999,-99999,-99999,-99999,-99999,-99999
"232",CA00410,MURPHYS AFTERBAY,38.1522,-120.4397,Conventional storage dam,-99999,0.03823788,NID2019,0.03823788,NID2019,9.0678,9.0678,NID2019,NID2019,0.9448486465194,0.9448486465194,0.4724243232597,0.4724243232597,-99999,-99999,-99999,-99999,-99999,-99999,-99999,-99999,-99999,-99999,-99999,-99999,-99999,-99999,-99999,-99999,NA,NA,-99999,-99999,-99999,-99999,-99999,-99999,-99999,-99999,-99999,-99999,-99999,-99999
"233",CA00411,WISHON MAIN,37.0042,-118.9684,Conventional storage dam,183.6,159.26447064,NID2019,159.1,GRanDv1.3,56.7,55.4736,GRanDv1.3,NID2019,24607.5551974098,24050.440596,12303.7775987049,12025.220298,134.028078417265,130.993685163399,67.0140392086324,65.4968425816994,-99999,-99999,-99999,-99999,-99999,-99999,-99999,-99999,-99999,-99999,-99999,-99999,NA,NA,-99999,-99999,-99999,-99999,-99999,-99999,-99999,-99999,-99999,-99999,-99999,-99999
